CITY;STATE;CAPITAL;IBGE_RES_POP;IBGE_RES_POP_BRAS;IBGE_RES_POP_ESTR;IBGE_DU;IBGE_DU_URBAN;IBGE_DU_RURAL;IBGE_POP;IBGE_1;IBGE_1-4;IBGE_5-9;IBGE_10-14;IBGE_15-59;IBGE_60+;IBGE_PLANTED_AREA;IBGE_CROP_PRODUCTION_$;IDHM Ranking 2010;IDHM;IDHM_Renda;IDHM_Longevidade;IDHM_Educacao;LONG;LAT;ALT;PAY_TV;FIXED_PHONES;AREA;REGIAO_TUR;CATEGORIA_TUR;ESTIMATED_POP;RURAL_URBAN;GVA_AGROPEC;GVA_INDUSTRY;GVA_SERVICES;GVA_PUBLIC; GVA_TOTAL ;TAXES;GDP;POP_GDP;GDP_CAPITA;GVA_MAIN;MUN_EXPENDIT;COMP_TOT;COMP_A;COMP_B;COMP_C;COMP_D;COMP_E;COMP_F;COMP_G;COMP_H;COMP_I;COMP_J;COMP_K;COMP_L;COMP_M;COMP_N;COMP_O;COMP_P;COMP_Q;COMP_R;COMP_S;COMP_T;COMP_U;HOTELS;BEDS;Pr_Agencies;Pu_Agencies;Pr_Bank;Pu_Bank;Pr_Assets;Pu_Assets;Cars;Motorcycles;Wheeled_tractor;UBER;MAC;WAL-MART;POST_OFFICES
Abadia De Goiás;GO;0;6876;6876;0;2137;1546;591;5300;69;318;438;517;3542;416;319;1843;1689;0.708;0.687;0.83;0.622;-49.44054783;-16.75881189;893.6;360;842;147.26;;;8583;Urbano;6.2;27991.25;74750.32;36915.04;145857.6;20554.2;166.41;8053;20664.57;Demais serviços;28227691;284;5;1;56;0;2;29;110;26;4;5;0;2;10;12;4;6;6;1;5;0;0;;;;;;;;;2158;1246;0;;;;1
Abadia Dos Dourados;MG;0;6704;6704;0;2328;1481;847;4154;38;207;260;351;2709;589;4479;18017;2207;0.69;0.693;0.839;0.563;-47.39683244;-18.48756496;753.12;77;296;881.06;Caminhos Do Cerrado;D;6972;Rural Adjacente;50524.57;25917.7;62689.23;28083.79;167215.28;12873.5;180.09;7037;25591.7;Demais serviços;17909274;476;6;6;30;1;2;34;190;70;28;11;0;4;15;29;2;9;14;6;19;0;0;;;;;;;;;2227;1142;0;;;;1
Abadiânia;GO;0;15757;15609;148;4655;3233;1422;10656;139;650;894;1087;6896;990;10307;33085;2202;0.69;0.671;0.841;0.579;-48.71881214;-16.18267186;1017.55;227;720;1,045.13;Região Turística Do Ouro E Cristais;C;19614;Rural Adjacente;42.84;16728.3;138198.58;63396.2;261161.91;26822.58;287984.49;18427;15628.4;Demais serviços;37513019;288;5;9;26;0;2;7;117;12;57;2;1;0;7;15;3;11;5;1;8;0;0;1;34;1;1;1;1;33724584;67091904;2838;1426;0;;;;3
Abaeté;MG;0;22690;22690;0;7694;6667;1027;18464;176;856;1233;1539;11979;2681;1862;7502;1994;0.698;0.72;0.848;0.556;-45.44619142;-19.15584769;644.74;1230;1716;1,817.07;Lago De Três Marias;D;23223;Urbano;113824.6;31002.62;172.33;86081.41;403241.27;26994.09;430235.36;23574;18250.42;Demais serviços;;621;18;1;40;0;1;20;303;62;30;9;6;4;28;27;2;15;19;9;27;0;0;;;2;2;2;2;44974716;371922572;6928;2953;0;;;;4
Abaetetuba;PA;0;141100;141040;60;31061;19057;12004;82956;1354;5567;7618;8905;53516;5996;25200;700872;3530;0.628;0.579;0.798;0.537;-48.88440382;-1.723469863;10.12;3389;1218;1,610.65;Araguaia-Tocantins;D;156292;Urbano;140463.72;58610;468128.69;486872.4;1154074.81;95180.48;1249255.29;151934;8222.36;Administração, defesa, educação e saúde públicas e seguridade social;;931;4;2;43;0;1;27;500;16;31;6;1;1;22;16;2;155;33;15;56;0;0;;;2;4;2;4;76181384;800078483;5277;25661;0;;;;2
Abaiara;CE;0;10496;10496;0;2791;1251;1540;4538;98;323;421;483;2631;582;2598;5234;3522;0.628;0.54;0.748;0.612;-39.04754664;-7.356976596;403.11;29;34;180.08;;;11663;Rural Adjacente;4435.16;5.88;22.81;35989.96;69108.67;4042.79;73151.46;11483;6370.41;Administração, defesa, educação e saúde públicas e seguridade social;;86;1;0;4;0;0;6;48;2;10;2;0;0;2;3;2;0;2;0;4;0;0;;;;;;;;;553;1674;0;;;;1
Abaíra;BA;0;8316;8316;0;2572;1193;1379;3725;37;156;263;277;2319;673;895;3999;4086;0.603;0.577;0.746;0.51;-41.66160848;-13.25353189;674.22;952;335;538.68;Chapada Diamantina;D;8767;Rural Remoto;12.41;3437.43;17990.74;28463.74;62304.83;2019.77;64324.59;9212;6982.7;Administração, defesa, educação e saúde públicas e seguridade social;;191;6;0;8;0;1;4;97;5;5;3;1;0;5;5;2;8;1;2;38;0;0;1;24;;;;;;;896;696;0;;;;1
Abaré;BA;0;17064;17064;0;4332;2379;1953;8994;167;733;978;927;5386;803;2058;22761;4756;0.575;0.533;0.776;0.46;-39.11658794;-8.723418246;316.38;51;222;1,604.92;;;19814;Rural Remoto;9176.4;6.7;36921.84;65.75;118.55;6.21;124754.26;19939;6256.8;Administração, defesa, educação e saúde públicas e seguridade social;;87;2;0;3;0;0;0;71;0;1;1;0;0;0;1;2;0;2;0;4;0;0;;;1;0;1;0;21823314;0;613;1532;0;;;;1
Abatiá;PR;0;7764;7764;0;2499;1877;622;5685;69;302;370;483;3650;811;1197;9943;2258;0.687;0.676;0.804;0.596;-50.31252658;-23.30049404;579.3;55;392;228.72;;;7507;Rural Adjacente;73340.52;8839.71;42999.37;34103.49;159283.08;5.77;165048.21;7795;21173.6;Agricultura, inclusive apoio à agricultura e a pós colheita;;285;5;0;20;0;1;10;133;18;14;8;0;4;11;26;2;8;9;4;12;0;0;;;0;1;0;1;0;45976288;2168;912;0;;;;1
Abdon Batista;SC;0;2653;2653;0;848;234;614;724;12;32;49;63;479;89;5502;26195;2092;0.69;0.66;0.812;0.625;-51.02527221;-27.60898712;720.98;109;260;237.16;Vale Do Contestado;D;2577;Rural Adjacente;24996.75;3578.87;16011.1;17842.64;62429.36;2312.65;64742.01;2617;24739.02;Administração, defesa, educação e saúde públicas e seguridade social;19506956;69;2;0;4;0;0;2;35;8;3;1;1;0;4;0;2;1;3;0;3;0;0;;;0;1;0;1;0;42909056;976;345;2;;;;1
Abel Figueiredo;PA;0;6780;6780;0;1880;1650;230;5998;102;471;609;691;3657;468;1184;4168;3657;0.622;0.625;0.8;0.481;-48.39676213;-4.951390896;192.76;248;43;614.13;Amazônia Atlântica;E;7382;Intermediário Adjacente;21381.59;5.31;20515.48;27736.46;74947.67;4709.92;79657.59;7179;11095.92;Administração, defesa, educação e saúde públicas e seguridade social;;72;0;0;9;0;1;0;41;1;0;1;0;0;2;1;6;6;0;0;4;0;0;;;0;1;0;1;0;11709575;279;807;0;;;;1
Abelardo Luz;SC;0;17100;17084;16;4739;2694;2045;9544;147;616;808;963;6068;942;57186;254540;2032;0.696;0.684;0.852;0.578;-52.33648238;-26.56303102;724.99;484;910;953.99;Grande Oeste;D;17847;Rural Adjacente;212531.45;78176.47;197092.1;78972.1;566772.13;37508.23;604280.35;17782;33982.7;Agricultura, inclusive apoio à agricultura e a pós colheita;;464;8;2;40;1;1;25;177;67;25;9;4;7;26;16;2;14;13;4;23;0;0;;;1;2;1;2;29730462;382942698;5823;2001;1;;;;1
Abre Campo;MG;0;13311;13294;17;3930;2202;1728;7101;85;362;529;620;4512;993;4543;24155;3046;0.654;0.646;0.823;0.525;-42.48098999;-20.30144528;589.83;625;519;470.55;Montanhas E Fé;D;13465;Rural Adjacente;43828.42;10448.76;72852.23;50.66;177793.23;10110.5;187903.74;13726;13689.62;Demais serviços;;369;3;2;33;0;1;12;148;31;17;5;3;4;17;12;4;11;22;6;38;0;0;;;0;1;0;1;0;81340685;2838;1851;0;;;;2
Abreu E Lima;PE;0;94429;94407;22;28182;25944;2238;81482;1050;4405;6255;7019;54749;8004;387;2595;2477;0.679;0.625;0.791;0.632;-34.89913058;-7.90444899;27.06;1418;4661;126.19;Costa Náutica Coroa Do Avião;D;99622;Urbano;7.8;384262.09;526.04;336141.88;1254241.3;170264.52;1424505.83;98990;14390.4;Demais serviços;119645700;841;1;0;130;0;2;26;434;27;36;14;3;4;18;30;2;47;20;6;41;0;0;;;2;3;2;3;155632735;460626103;14579;10122;0;;;;1
Abreulândia;TO;0;2391;2391;0;760;445;315;1476;21;107;172;182;872;122;13102;31281;2786;0.665;0.7;0.835;0.502;-49.16243756;-9.621790712;238.86;14;29;1,895.21;;;2564;Rural Adjacente;20312.55;2108.24;6802.38;16520.91;45744.07;1634.18;47378.25;2555;18543.35;Administração, defesa, educação e saúde públicas e seguridade social;9712530;27;4;0;0;0;0;3;11;0;1;1;0;0;1;1;4;0;0;0;1;0;0;;;;;;;;;190;318;0;;;;1
Acaiaca;MG;0;3920;3920;0;1264;834;430;2550;31;150;197;256;1581;335;208;509;3493;0.63;0.61;0.823;0.499;-43.1482389;-20.36040893;492.79;229;133;101.89;Serras De Minas;E;3994;Rural Adjacente;3838.68;1892.39;11978.78;17695.77;35405.62;1018.41;36424.03;4061;8969.23;Administração, defesa, educação e saúde públicas e seguridade social;12182050;60;1;3;8;0;0;2;24;1;4;1;0;0;1;3;2;5;1;0;4;0;0;;;;;;;;;899;598;0;;;;1
Açailândia;MA;0;104047;104018;29;27523;20612;6911;78081;1442;5896;7924;8368;49197;5254;27137;89420;2633;0.672;0.643;0.785;0.602;-47.50666459;-4.951377;229.05;1225;2618;5,806.44;;;111757;Urbano;159853.84;488799.22;779.84;364811.85;1793302.18;206244.13;1999546.31;110543;18088.4;Demais serviços;214456331;1334;47;1;113;0;5;75;657;61;80;18;5;21;38;72;3;21;52;12;53;0;0;2;56;2;3;2;3;125525251;1494221307;9935;24208;17;;;;1
Acajutiba;BA;0;14653;14643;10;4116;3632;484;12727;216;849;1282;1404;7412;1564;4570;11442;4613;0.58;0.56;0.723;0.487;-38.01828637;-11.66261283;183.93;426;297;181.48;;;15129;Rural Adjacente;23176.61;7.02;33546.04;48142.87;111888.63;3269.82;115158.46;15764;7305.15;Administração, defesa, educação e saúde públicas e seguridade social;27275310;96;2;0;4;0;0;1;57;2;3;1;2;0;1;2;3;3;4;2;9;0;0;;;0;1;0;1;0;50185684;834;1444;0;;;;1
Acará;PA;0;53569;53516;53;11833;3014;8819;12590;265;1082;1436;1537;7281;989;41637;342851;5513;0.506;0.517;0.757;0.332;-48.20045643;-1.9634365;7.4;964;181;4,343.55;Araguaia-Tocantins;D;55513;Rural Adjacente;441281.74;43934.34;97080.41;188941.14;771237.62;17.18;788.42;54080;14578.7;Agricultura, inclusive apoio à agricultura e a pós colheita;106368816;162;8;3;6;0;0;4;99;3;2;1;0;0;1;3;3;12;0;1;16;0;0;;;1;1;1;1;22821995;37523391;652;3342;0;;;;1
Acarape;CE;0;15338;15338;0;4186;2181;2005;8189;142;554;693;855;5149;796;1386;1274;4009;0.606;0.559;0.709;0.562;-38.70562377;-4.223138409;94.51;692;91;155.17;;;15399;Intermediário Adjacente;4.68;23265.11;36147.88;54.65;118741.09;9649.83;128390.92;16418;7820.13;Administração, defesa, educação e saúde públicas e seguridade social;33078580;132;2;9;39;0;0;2;54;4;2;0;0;0;1;3;3;5;0;0;8;0;0;;;;;;;;;1089;1246;0;;;;2
Acaraú;CE;0;57551;57542;9;14680;7410;7270;24117;358;1615;2084;2558;15123;2379;18505;38871;4125;0.601;0.554;0.758;0.517;-40.11824147;-2.88531054;17.29;3032;479;845.47;Litoral Extremo Oeste;C;62557;Rural Adjacente;74352.86;94123.87;187.46;188055.4;543990.18;36737.25;580727.43;61715;9409.83;Administração, defesa, educação e saúde públicas e seguridade social;101483437;638;41;1;38;8;0;6;363;7;28;3;0;6;9;14;2;71;17;6;18;0;0;;;1;3;1;3;57802114;529074069;3371;10448;0;;;;1
Acari;RN;0;11035;11030;5;3298;2721;577;8260;111;404;556;658;5217;1314;375;1977;2462;0.679;0.633;0.779;0.634;-36.64373887;-6.442085089;258.84;947;146;608.47;Polo Seridó;D;11152;Intermediário Adjacente;12.58;9.27;30.36;50992.14;103203.25;5380.07;108583.31;11338;9576.94;Administração, defesa, educação e saúde públicas e seguridade social;22943205;167;4;0;33;1;0;5;83;0;5;1;1;1;2;4;2;12;2;1;10;0;0;1;34;;;;;;;1259;1802;0;;;;1
Acauã;PI;0;6749;6749;0;1877;266;1611;901;13;74;83;99;558;74;5520;503;5408;0.528;0.517;0.692;0.411;-41.08363782;-8.220786663;372.31;6;28;1,279.59;Polo Histórico Cultural;E;7065;Rural Adjacente;6.05;1556.09;7052.14;25754.39;40410.01;2192.56;42602.57;6951;6128.98;Administração, defesa, educação e saúde públicas e seguridade social;14935714;77;0;0;2;0;1;0;20;4;3;1;0;0;0;2;7;1;0;0;36;0;0;;;;;;;;;272;1014;0;;;;1
Aceguá;RS;0;4394;4265;129;1398;314;1084;1059;17;46;76;119;684;117;31149;119866;2259;0.687;0.703;0.852;0.541;-54.16473154;-31.8640153;237.92;171;298;1,551.34;Pampa Gaúcho;D;4858;Urbano;130383.04;10632.62;66901.48;30193.24;238110.37;12221.86;250332.23;4731;52913.18;Agricultura, inclusive apoio à agricultura e a pós colheita;22028721;168;8;0;8;0;1;2;86;8;9;0;1;0;2;13;3;6;3;5;13;0;0;;;0;1;0;1;0;13450411;2046;591;5;;;;2
Acopiara;CE;0;51160;51160;0;15041;7885;7156;25159;365;1521;1929;2422;15121;3801;17482;4244;4279;0.595;0.563;0.724;0.517;-39.45570528;-6.092761995;312.96;426;598;2,265.35;;;53931;Rural Adjacente;35057.66;17008.7;137661.95;155449.9;345.18;26.52;371701.24;53358;6966.18;Administração, defesa, educação e saúde públicas e seguridade social;85042995;365;2;0;26;0;0;6;255;1;15;5;1;4;7;5;2;5;2;4;25;0;0;1;22;1;3;1;3;33077714;262320355;3158;11056;0;;;;10
Acorizal;MT;0;5516;5516;0;1742;899;843;2926;37;160;257;287;1793;392;278;2299;3523;0.628;0.594;0.816;0.51;-56.37155257;-15.19788998;201.78;187;192;1,014.03;;;5424;Rural Adjacente;9896.08;13184.24;13177.61;28665.55;64923.48;5913.52;70836.99;5301;13362.95;Administração, defesa, educação e saúde públicas e seguridade social;;57;2;2;5;0;0;5;28;1;3;0;0;0;2;2;3;0;0;0;4;0;0;1;18;;;;;;;492;529;0;;;;3
Acrelândia;AC;0;12538;12535;3;3473;1679;1794;5902;118;508;671;710;3484;411;5807;31152;4079;0.604;0.584;0.808;0.466;-67.05231658;-10.07379389;205.89;184;369;1,807.95;;;15020;Rural Adjacente;91143.89;14.02;32079.69;85106.34;222349.24;5261.66;227610.9;14120;16119.75;Administração, defesa, educação e saúde públicas e seguridade social;22507579;107;2;0;15;0;0;0;56;1;5;1;0;0;1;1;3;8;6;0;8;0;0;1;27;0;1;0;1;0;86310524;1223;3343;0;;;;1
Acreúna;GO;0;20279;20270;9;6485;5636;849;16969;211;1008;1400;1559;11256;1535;112457;452254;2282;0.69;0.71;0.822;0.553;-50.37497337;-17.39815622;542.39;596;2065;1,566.00;;;22182;Urbano;232884.07;47274.38;207423.31;86.03;573612.01;40799.1;614411.11;21905;28048.9;Agricultura, inclusive apoio à agricultura e a pós colheita;46887656;318;19;0;25;0;0;4;160;23;15;3;0;3;9;10;6;16;8;3;14;0;0;;;2;1;2;1;81831560;98509641;4892;3461;3;;;;1
Açu;RN;0;53227;53216;11;14880;11063;3817;41739;601;2546;3312;3934;27195;4151;1301;12773;2889;0.66;0.641;0.795;0.568;-36.91792322;-5.571945999;48.68;4466;1094;1,303.44;Polo Costa Branca;D;57644;Urbano;19768.32;124288.5;324444.15;252219.21;720720.18;62923.66;783.64;57743;13571.24;Administração, defesa, educação e saúde públicas e seguridade social;92773968;843;11;1;59;0;7;39;445;16;64;17;6;2;25;30;2;48;22;10;39;0;0;2;123;1;3;1;3;66058899;871798349;;;;;;;4
Açucena;MG;0;10276;10276;0;3061;1479;1582;4790;66;251;380;516;2825;752;483;1474;3905;0.61;0.595;0.844;0.451;-42.54621088;-19.07671289;473.7;105;227;815.42;Mata Atlântica De Minas;D;9575;Rural Adjacente;17100.04;20186.12;18898.2;36509.15;92693.5;1962.69;94656.19;10066;9403.56;Administração, defesa, educação e saúde públicas e seguridade social;15750762;76;2;1;3;0;1;5;33;1;2;0;0;1;4;2;3;12;1;0;5;0;0;;;;;;;;;1212;1672;1;;;;4
Adamantina;SP;0;33797;33769;28;11335;10777;558;31695;333;1282;1803;2089;20651;5537;14699;69644;69;0.79;0.772;0.852;0.75;-51.07336475;-21.68831148;451.12;1354;7648;411.99;Águas Do Oeste;C;35023;Urbano;41899.77;298402.33;587636.55;151089.03;1079027.68;73.41;1152441.22;35094;32838.7;Demais serviços;115703289;1726;272;0;102;0;4;35;663;102;99;41;21;28;75;79;2;32;65;20;86;0;0;;;3;2;3;2;526179392;823567347;14851;6481;4;;;;1
Adelândia;GO;0;2477;2471;6;846;746;100;2190;27;114;153;174;1435;287;1091;4158;1858;0.7;0.664;0.836;0.622;-50.16314668;-16.41500151;641.11;100;75;115.35;;;2517;Rural Adjacente;7943.41;2.75;8461.79;11114.75;30268.77;1695.42;31964.19;2561;12481.14;Administração, defesa, educação e saúde públicas e seguridade social;11102682;57;1;0;10;0;0;1;30;3;0;0;0;0;1;5;4;1;0;1;0;0;0;;;;;;;;;584;393;0;;;;1
Adolfo;SP;0;3557;3557;0;1200;1081;119;3200;30;149;206;234;2079;502;9755;67479;1044;0.73;0.71;0.844;0.648;-49.64972143;-21.23272978;425.39;520;271;211.06;Coração Do Tietê;D;3571;Rural Adjacente;29090.08;6.14;27.72;21018.78;83.98;2.49;86.47;3616;23911.98;Agricultura, inclusive apoio à agricultura e a pós colheita;;81;10;2;3;0;0;2;33;5;4;0;0;0;2;2;2;3;1;3;9;0;0;;;1;0;1;0;32631770;0;1394;401;0;;;;1
Adrianópolis;PR;0;6376;6376;0;1976;643;1333;2050;26;124;172;220;1258;250;4257;41893;2746;0.667;0.644;0.817;0.563;-48.99175454;-24.66168971;180.71;367;539;1,349.31;;;5983;Rural Adjacente;29899.62;107937.11;40706.69;30010.3;208553.72;30526.62;239080.34;6293;37991.47;Indústrias de transformação;27071690;145;3;3;3;0;0;8;74;18;13;1;1;0;1;3;3;2;2;0;10;0;0;;;1;0;1;0;20476881;0;1437;925;0;;;;3
Adustina;BA;0;15702;15702;0;4544;1704;2840;5545;65;324;437;524;3498;697;26000;26863;5261;0.546;0.526;0.718;0.432;-38.11550583;-10.52957157;280.71;199;81;632.14;Caminhos Do Sertão;E;16784;Rural Adjacente;14279.65;4420.39;29.09;49456.17;97.25;4230.11;101477.93;17254;5881.41;Administração, defesa, educação e saúde públicas e seguridade social;29542520;92;0;0;2;0;0;0;67;0;0;2;0;0;4;2;2;2;0;0;11;0;0;;;;;;;;;262;1185;0;;;;1
Afogados Da Ingazeira;PE;0;35088;35088;0;10879;8667;2212;27335;389;1766;2324;2618;16849;3389;3625;1404;2974;0.657;0.623;0.807;0.565;-37.63768602;-7.748327586;515.35;771;4181;377.70;Território Da Poesia E Da Cantoria;C;37111;Urbano;7.6;33313.36;180015.56;127392.7;348319.5;37329.59;385649.08;36866;10460.83;Administração, defesa, educação e saúde públicas e seguridade social;68786462;527;1;0;27;0;2;13;305;3;24;15;5;2;11;15;9;15;19;9;52;0;0;;;1;2;1;2;95355383;251149663;5737;10461;0;;;;1
Afonso Bezerra;RN;0;10844;10844;0;2948;1602;1346;5736;90;371;497;495;3492;791;711;6358;4539;0.585;0.56;0.713;0.502;-36.50914823;-5.498734268;64.5;163;82;576.18;Polo Costa Branca;D;11041;Rural Adjacente;6021.35;3492.56;18878.04;53155.08;81547.02;3237.99;84785.01;11207;7565.36;Administração, defesa, educação e saúde públicas e seguridade social;29729803;72;1;0;3;0;0;3;49;0;2;1;0;0;1;4;2;4;0;2;0;0;0;;;;;;;;;655;838;0;;;;1
Afonso Cláudio;ES;0;31091;31091;0;9859;5310;4549;15757;215;845;1116;1268;10052;2261;12267;114366;2744;0.667;0.661;0.825;0.544;-41.12545972;-20.07704001;360.8;1230;995;941.19;Montanhas Capixabas;D;30720;Rural Adjacente;103014.12;52.08;167837.75;124250.88;447184.74;25292.01;472476.75;32407;14579.47;Demais serviços;69220540;555;4;12;37;0;1;21;285;9;30;5;4;0;20;12;3;27;20;8;57;0;0;;;0;3;0;3;0;324101608;8131;7984;4;;;;6
Afonso Cunha;MA;0;5905;5905;0;1305;734;571;3230;60;301;373;369;1880;247;6388;17098;5406;0.529;0.471;0.725;0.434;-43.320869;-4.135015477;67.2;89;10;371.34;;;6469;Rural Adjacente;2461.41;1600;8.46;21500.22;34025.09;1434.15;35459.24;6421;5522.39;Administração, defesa, educação e saúde públicas e seguridade social;;14;1;0;0;0;0;0;6;0;0;0;0;1;0;1;2;0;1;0;2;0;0;;;;;;;;;61;519;0;;;;1
Afrânio;PE;0;17586;17586;0;4744;1681;3063;5841;91;477;570;553;3616;534;7000;173;4445;0.588;0.542;0.761;0.493;-41.00579734;-8.511091284;515.84;39;533;1,490.59;;;19456;Rural Adjacente;8158.4;6.73;52942.8;72.46;140286.14;10053.43;150339.57;19225;7820;Administração, defesa, educação e saúde públicas e seguridade social;44498865;141;0;0;11;0;0;2;84;1;6;2;0;0;3;1;3;22;1;1;4;0;0;;;0;1;0;1;0;44765064;809;3677;0;;;;4
Afuá;PA;0;35042;35042;0;6748;1979;4769;9408;185;818;1213;1218;5399;575;140;958;5544;0.489;0.485;0.774;0.311;-50.39142759;-0.159171694;3.14;1521;61;8,338.44;Marajó;D;38863;Rural Remoto;107.97;17984.14;41.2;139565.99;306719.36;9271.89;315991.25;37778;8364.42;Administração, defesa, educação e saúde públicas e seguridade social;;36;0;0;4;0;0;1;20;2;1;0;0;0;1;1;2;0;0;0;4;0;0;;;0;2;0;2;0;50400651;2;4;0;;;;1
Agrestina;PE;0;22679;22679;0;6882;5209;1673;16935;242;1046;1487;1761;10195;2204;361;667;4350;0.59;0.581;0.76;0.47;-35.94677684;-8.455973;437.15;542;520;200.58;Encantos Do Agreste;D;24702;Intermediário Adjacente;20547.52;19200.56;75135.49;89128.35;204011.92;16677.85;220689.77;24454;9024.69;Administração, defesa, educação e saúde públicas e seguridade social;48941210;225;5;2;23;0;2;4;100;3;13;3;0;1;5;5;6;18;9;2;24;0;0;1;8;0;1;0;1;0;33677594;2825;2929;0;;;;3
Agricolândia;PI;0;5098;5098;0;1536;1100;436;3594;46;198;265;379;2100;606;2442;6319;4185;0.599;0.55;0.742;0.526;-42.6591832;-5.795501935;260.44;145;77;112.39;;;5148;Rural Adjacente;1980.61;1453.88;6405.94;18108.2;27948.62;1570.87;29519.49;5069;5823.53;Administração, defesa, educação e saúde públicas e seguridade social;12532965;39;0;0;1;0;0;3;22;0;0;0;0;0;0;0;2;1;1;0;9;0;0;;;;;;;;;282;1185;0;;;;1
Agrolândia;SC;0;9323;9318;5;2952;1927;1025;5951;71;364;421;484;3961;650;3909;26723;1167;0.725;0.727;0.827;0.633;-49.82565339;-27.40051659;383.22;369;603;206.91;Caminhos Do Alto Vale;D;10711;Rural Adjacente;36.18;55228.22;75110.21;43981.83;210497.42;15304.24;225.8;10427;21655.48;Demais serviços;;490;3;0;151;1;0;15;147;19;22;1;2;9;10;20;2;14;8;12;54;0;0;;;1;1;1;1;40876891;58718873;4218;2146;5;;;;1
Agronômica;SC;0;4904;4904;0;1511;589;922;1858;25;95;121;165;1266;186;5945;56156;754;0.741;0.774;0.884;0.595;-49.71836889;-27.26971611;342.19;181;392;129.77;Caminhos Do Alto Vale;D;5385;Urbano;47908.44;22249.14;35.73;24434.96;130322.48;8067.84;138390.31;5371;25766.21;Agricultura, inclusive apoio à agricultura e a pós colheita;16270811;223;1;0;61;1;2;9;65;23;9;0;1;6;2;5;2;7;2;4;23;0;0;;;;;;;;;2135;903;2;;;;1
Água Azul Do Norte;PA;0;25057;25057;0;5847;1123;4724;7340;158;614;737;774;4712;345;5083;22630;4979;0.564;0.563;0.797;0.399;-50.48527451;-6.804948867;296.3;341;49;7,113.96;Araguaia-Tocantins;D;27241;Rural Remoto;151259.91;91612.66;52043.21;88.69;383605.61;48508.82;432114.44;26497;16308.05;Pecuária, inclusive apoio à pecuária;51874219;98;0;0;1;0;1;1;62;6;5;2;0;0;1;1;5;4;3;0;6;0;0;;;0;1;0;1;0;12515715;425;1953;0;;;;1
Água Boa;MT;0;20856;20844;12;6437;5251;1186;16691;288;1047;1464;1551;11228;1113;185610;461368;1068;0.73;0.723;0.829;0.646;-52.1589153;-14.0490868;453.88;1162;2278;7,510.64;;;25229;Urbano;202467.55;62177.81;407268.07;137909.69;809.82;90166.44;899989.55;24032;37449.63;Demais serviços;;794;17;4;55;1;3;39;398;58;39;12;4;15;33;21;5;11;29;6;44;0;0;1;92;1;2;1;2;57173657;648428649;4470;7111;1;;;;3
Água Boa;MG;0;15195;15195;0;4170;2015;2155;6987;103;447;665;873;4115;784;3925;21593;4738;0.58;0.594;0.799;0.403;-42.38964323;-17.99105305;432.45;180;228;1,320.26;Pedras Preciosas;D;13600;Rural Adjacente;34728.98;5.37;36147.74;52772.84;129017.64;5230.06;134247.7;14524;9243.16;Administração, defesa, educação e saúde públicas e seguridade social;;186;4;1;10;0;1;7;93;14;12;1;0;0;4;4;2;9;7;0;17;0;0;;;0;1;0;1;0;36394549;1205;1962;0;;;;2
Água Branca;PI;0;16451;16451;0;4733;4203;530;14525;204;933;1347;1541;8658;1842;822;2168;3329;0.639;0.6;0.763;0.569;-42.63513086;-5.893266338;244.54;743;279;97.04;;;17349;Urbano;2594.09;15331.53;77681.59;66685.33;162292.53;12438.52;174731.05;17068;10237.35;Administração, defesa, educação e saúde públicas e seguridade social;45401009;293;2;0;10;0;1;9;209;2;8;3;0;1;3;6;3;12;8;3;13;0;0;;;0;3;0;3;0;468713834;2117;8713;1;;;;1
Água Branca;AL;0;19377;19377;0;4734;1361;3373;5090;90;361;505;513;3047;574;2708;967;5216;0.55;0.527;0.728;0.432;-37.94071518;-9.267025497;632.66;79;225;468.23;Caminhos Do São Francisco;D;20162;Rural Adjacente;6100.07;4912.19;35505.49;74825.08;121342.82;4884.96;126227.79;20422;6180.97;Administração, defesa, educação e saúde públicas e seguridade social;;111;1;0;4;0;1;3;67;0;5;0;0;0;3;3;4;3;1;2;14;0;0;;;0;1;0;1;0;37717578;957;2347;0;;;;1
Água Branca;PB;0;9449;9449;0;2562;1209;1353;4059;57;266;397;450;2336;553;1707;852;4813;0.57;0.542;0.712;0.484;-37.64220904;-7.511070151;747.5;7;59;236.61;Vale Dos Sertões;E;10161;Rural Adjacente;4429.23;2720.78;18732.48;46056.56;71939.05;3181.64;75120.69;10172;7385.05;Administração, defesa, educação e saúde públicas e seguridade social;24264569;130;0;0;7;0;0;3;72;0;1;3;0;0;5;4;4;2;4;1;24;0;0;;;;;;;;;323;322;0;;;;1
Água Clara;MS;0;14424;14411;13;4468;2920;1548;9397;173;660;830;950;6223;561;2767;8530;2677;0.67;0.705;0.823;0.518;-52.87511755;-20.44885076;308.97;1026;1556;7,784.92;;;15257;Rural Adjacente;413726.32;383746.94;135346.04;97460.2;1030279.51;87712.13;1117991.64;14734;75878.35;Eletricidade e gás, água, esgoto, atividades de gestão de resíduos e descontaminação;;478;53;0;62;0;2;24;190;27;42;4;3;2;21;10;3;9;10;1;15;0;0;3;189;1;0;1;0;57221170;0;3481;2273;0;;;;1
Água Comprida;MG;0;2025;2025;0;712;539;173;1499;13;53;89;112;1008;224;36278;133297;2569;0.675;0.719;0.86;0.498;-48.10807677;-20.05931241;531.44;72;78;492.17;;;2005;Rural Adjacente;79036.12;6.71;29858.25;15941.86;131550.21;4252.57;135.8;2061;65891.69;Agricultura, inclusive apoio à agricultura e a pós colheita;;37;0;0;2;0;0;0;15;2;1;0;0;0;0;1;2;2;1;2;9;0;0;;;;;;;;;484;154;0;;;;1
Água Doce;SC;0;6961;6958;3;2131;1145;986;3408;42;184;226;278;2134;544;22018;132364;1988;0.698;0.724;0.82;0.574;-51.55909656;-27.00409166;806.11;220;643;1,313.97;Vale Do Contestado;D;7138;Rural Adjacente;141254.65;28806.01;91540.21;35489.48;297090.35;20.85;317937.56;7143;44510.37;Agricultura, inclusive apoio à agricultura e a pós colheita;26866200;216;6;0;25;7;3;4;72;31;17;2;0;4;12;3;6;8;6;2;8;0;0;;;0;1;0;1;0;57423169;2740;692;0;;;;2
Água Doce Do Maranhão;MA;0;11581;11581;0;2730;763;1967;3129;48;234;334;329;1833;351;2907;4050;5532;0.5;0.494;0.697;0.363;-42.1155512;-2.840278279;10.44;862;54;443.27;Polo Delta Das Américas;E;12488;Rural Adjacente;8.1;3555.39;19612.05;39464.68;70733.83;2.55;73287.14;12360;5929.38;Administração, defesa, educação e saúde públicas e seguridade social;;57;3;0;2;0;0;5;37;0;3;0;0;0;0;2;2;0;1;0;2;0;0;;;;;;;;;61;495;0;;;;3
Água Doce Do Norte;ES;0;11771;11748;23;3780;2244;1536;6667;97;371;511;643;4108;937;2726;20987;3087;0.652;0.619;0.819;0.546;-40.97645591;-18.54554649;210.92;68;462;473.73;;;11131;Rural Adjacente;16479.39;16930.12;46087.78;56.9;136393.68;8.08;144469.92;11958;12081.44;Administração, defesa, educação e saúde públicas e seguridade social;27990899;277;2;16;12;1;0;11;135;14;6;2;0;0;7;4;2;7;10;0;48;0;0;;;0;1;0;1;0;24575500;1594;2870;1;;;;5
Água Fria;BA;0;15731;15731;0;4610;1830;2780;5753;89;332;463;562;3504;803;6315;2072;5195;0.55;0.529;0.747;0.422;-38.7680778;-11.872931;299.89;48;212;743.01;;;16901;Rural Adjacente;15934.19;29924.44;29.28;58.18;133.32;5359.91;138677.16;17431;7955.78;Administração, defesa, educação e saúde públicas e seguridade social;31096225;73;0;0;2;0;0;2;49;4;0;0;0;0;1;3;2;3;0;0;7;0;0;;;1;1;1;1;5728792;16697582;780;1125;0;;;;2
Água Fria De Goiás;GO;0;5090;5088;2;1624;676;948;2127;31;153;187;197;1393;166;73513;291614;2659;0.67;0.672;0.817;0.55;-47.78221216;-14.98553527;856.26;42;150;2,029.42;;;5676;Rural Adjacente;186.93;17039.98;39360.39;22.24;265.58;10841.63;276416.74;5560;49715.24;Agricultura, inclusive apoio à agricultura e a pós colheita;;44;2;0;2;0;0;1;23;0;5;1;0;0;1;1;6;1;0;0;1;0;0;;;;;;;;;620;258;0;;;;1
Água Limpa;GO;0;2013;2013;0;738;525;213;1422;14;66;83;130;897;232;167;593;1253;0.722;0.691;0.821;0.663;-48.76124096;-18.07140606;679.32;18;77;452.86;;;1872;Rural Adjacente;16061.02;1594.67;11.2;12420.58;41279.99;2357.13;43637.12;1980;22038.95;Pecuária, inclusive apoio à pecuária;12472878;22;0;0;2;0;0;0;12;3;0;0;0;0;0;2;2;1;0;0;0;0;0;;;;;;;;;451;193;0;;;;1
Água Nova;RN;0;2980;2980;0;796;521;275;1898;25;99;140;196;1234;204;416;310;3771;0.616;0.527;0.776;0.572;-38.29082495;-6.204716719;277.3;38;14;50.68;;;3230;Rural Adjacente;670.57;0.95;5159.35;17097.38;23875.56;692.2;24567.76;3235;7594.36;Administração, defesa, educação e saúde públicas e seguridade social;10769502;25;0;0;0;0;0;1;13;0;0;0;0;0;0;1;3;5;0;1;1;0;0;;;;;;;;;192;660;0;;;;1
Água Preta;PE;0;33095;33095;0;7840;4639;3201;17049;255;1123;1503;1805;10661;1702;2889;16545;5164;0.55;0.514;0.761;0.432;-35.51855735;-8.709122552;92.73;325;540;533.33;;;36454;Intermediário Adjacente;45.14;8.43;58759.06;134887.49;247214.96;8.93;256148.56;36040;7107.34;Administração, defesa, educação e saúde públicas e seguridade social;61414981;118;7;0;14;0;1;6;57;3;4;0;2;1;3;6;3;4;0;0;7;0;0;;;0;1;0;1;0;58548661;1768;2460;0;;;;2
Água Santa;RS;0;3722;3722;0;1097;480;617;1446;20;94;83;121;928;200;17708;59693;558;0.75;0.84;0.85;0.59;-52.03463279;-28.17505475;654.84;62;219;291.50;Rota Das Araucárias;E;3753;Rural Adjacente;84170.98;12.65;136429.92;22425.68;255.68;27.64;283321.69;3841;73762.48;Comércio e reparação de veículos automotores e motocicletas;18330521;126;2;1;13;0;0;3;54;11;7;1;0;0;1;1;5;7;4;1;15;0;0;;;0;2;0;2;0;142615190;1303;506;0;;;;1
Aguaí;SP;0;32148;32126;22;9899;8970;929;28182;363;1569;1943;2273;18608;3426;31346;223900;1460;0.715;0.703;0.858;0.606;-46.97969311;-22.059684;662.48;1389;5019;474.55;;;35954;Urbano;115600.38;146491.98;307155.81;117822.49;687.07;77216.87;764287.53;35189;21719.5;Demais serviços;;799;149;9;54;0;3;21;333;44;51;8;2;5;21;35;2;12;21;10;19;0;0;;;3;2;3;2;235543694;198861114;11167;5754;3;;;;1
Aguanil;MG;0;4054;4054;0;1353;791;562;2296;28;109;128;210;1484;337;3679;21206;2845;0.66;0.672;0.845;0.513;-45.38946534;-20.9374322;840.9;151;92;232.09;;;4448;Rural Adjacente;22570.88;2520.38;18121.24;19635.6;62848.1;1930.08;64778.18;4406;14702.27;Administração, defesa, educação e saúde públicas e seguridade social;13891248;91;2;0;16;0;0;0;48;7;4;0;0;1;4;3;2;0;1;1;2;0;0;;;;;;;;;1065;296;0;;;;2
Águas Belas;PE;0;40235;40235;0;4233;462;3770;22555;404;1854;2322;2419;12817;2739;7416;6024;5429;0.526;0.546;0.691;0.385;-37.12195717;-9.1145895;373.32;697;552;885.99;Fé E Arte;D;43195;Intermediário Adjacente;32469.67;10.97;101191.77;149808.68;294444.31;18982.3;313426.61;42831;7317.75;Administração, defesa, educação e saúde públicas e seguridade social;61572983;186;2;0;13;0;0;2;115;2;12;1;3;0;4;5;3;10;6;3;5;0;0;1;65;1;1;1;1;37915364;61410944;2104;5511;0;;;;2
Águas Da Prata;SP;0;7584;7549;35;2515;2265;250;6695;84;278;389;436;4268;1240;1387;8630;124;0.78;0.75;0.886;0.716;-46.71676671;-21.934829;832.91;606;1803;142.67;Mogiana Paulista;D;8137;Urbano;17026.53;16235.66;69097.9;30948.74;133308.83;9345.48;142654.32;8065;17688.07;Demais serviços;22737457;212;48;0;18;0;0;9;63;7;21;7;0;3;6;10;3;3;2;4;8;0;0;;;2;1;2;1;61947294;21858555;2816;945;0;;;;2
Águas De Chapecó;SC;0;6110;6104;6;1960;1077;883;3080;49;164;239;260;2051;317;2944;13152;1530;0.713;0.712;0.811;0.629;-52.98725101;-27.07621291;237.12;118;287;139.51;Vale Das Águas;D;6455;Rural Adjacente;36366.18;5628.78;27155.09;27.76;96908.21;3968.45;100876.66;6412;15732.48;Administração, defesa, educação e saúde públicas e seguridade social;17022396;115;0;1;12;0;0;4;53;19;5;0;1;0;4;4;3;3;2;1;3;0;0;;;0;1;0;1;0;44245730;2092;1128;1;;;;1
Águas De Lindóia;SP;0;17266;17206;60;5597;5544;53;6886;71;293;405;482;4411;1224;474;6287;661;0.745;0.725;0.846;0.675;-46.63177884;-22.47382204;893.17;2522;4393;60.13;Águas E Flores Paulista;B;18599;Intermediário Adjacente;5835.33;63398.24;283169.22;72227.49;424630.29;30.64;455273.81;18412;24727.02;Demais serviços;;881;11;0;168;0;1;41;328;11;92;5;8;3;24;96;2;23;28;10;30;0;0;4;723;3;2;3;2;200253763;299106456;7566;3644;0;;;;1
Águas De Santa Bárbara;SP;0;5601;5585;16;1873;1433;440;4245;50;208;290;375;2631;691;16245;132857;427;0.757;0.744;0.84;0.695;-49.23860777;-22.86914941;606.94;685;989;404.46;Coração Paulista;C;6040;Rural Adjacente;43747.56;11749.49;61599.69;31977.39;149074.13;8495.07;157569.2;5977;26362.59;Demais serviços;25978262;216;60;1;10;0;0;7;68;15;19;1;0;2;5;8;2;4;1;5;8;0;0;;;1;1;1;1;27249499;53962097;2489;594;0;;;;1
Águas De São Pedro;SP;0;2707;2693;14;990;990;;2687;19;95;135;180;1592;666;0;0;2;0.85;0.849;0.89;0.825;-47.88397474;-22.59733955;515.24;1033;1420;3.61;Serra Do Itaqueri;C;3380;Intermediário Adjacente;0;10504.94;94367.21;20211.04;125083.2;7533.36;132616.56;3205;41378.02;Demais serviços;21934921;202;2;1;4;0;1;6;99;3;40;5;2;1;9;15;2;3;3;2;4;0;0;;;1;2;1;2;29938860;134551644;1721;340;3;;;;1
Águas Formosas;MG;0;18479;18474;5;5299;4149;1150;14230;231;822;1311;1385;8500;1981;355;1201;3215;0.645;0.624;0.811;0.531;-40.93522794;-17.08230432;260.43;454;971;820.08;Vale Do Jequitinhonha;D;19166;Intermediário Adjacente;13053.94;17637.7;101421.72;74.9;207017.57;15085.07;222102.64;19363;11470.47;Demais serviços;;338;0;0;11;0;1;6;169;11;8;4;1;5;20;10;2;11;15;3;61;0;0;;;2;2;2;2;37776833;216108665;2101;2401;0;;;;2
Águas Frias;SC;0;2424;2424;0;725;302;423;981;11;55;55;90;662;108;2357;11322;650;0.745;0.728;0.86;0.661;-52.85941945;-26.88022754;339.7;90;177;76.74;Vale Das Águas;E;2378;Rural Adjacente;20701.03;15533.93;29016.4;13824.18;79.08;8615.8;87.69;2397;36583.79;Demais serviços;13538694;152;0;0;21;0;0;9;42;14;5;1;2;4;4;6;2;6;2;9;25;0;0;;;;;;;;;882;431;0;;;;1
Águas Lindas De Goiás;GO;0;159378;159315;63;44243;44157;86;158457;2854;12766;16927;17979;101913;6018;1069;3075;2299;0.69;0.647;0.848;0.588;-48.28344444;-15.73793886;1208.67;4671;11959;192.39;;;207070;Urbano;3198.38;127.96;741497.32;628341.75;1500.99;128825.17;1629818.67;191499;8510.85;Administração, defesa, educação e saúde públicas e seguridade social;289046422;1793;4;0;91;0;9;169;1049;18;89;19;2;17;38;61;8;88;42;24;65;0;0;;;2;4;2;3;71683043;788123739;15068;6290;6;;;;1
Águas Mornas;SC;0;5548;5545;3;1691;711;980;2318;25;101;179;214;1577;222;606;13115;1231;0.723;0.731;0.853;0.606;-48.8405384;-27.70659719;175.58;361;767;326.66;Grande Florianópolis;D;6378;Urbano;37894.9;21527.08;51637.77;27801.76;138861.5;7695.49;146.56;6206;23615.37;Demais serviços;16562570;193;1;4;21;0;1;28;81;5;12;1;2;3;8;8;3;2;4;2;7;0;0;;;;;;;;;2473;1274;5;;;;2
Águas Vermelhas;MG;0;12722;12722;0;3474;2455;1019;8932;115;617;838;939;5485;938;1711;11489;4134;0.601;0.586;0.808;0.458;-41.4587883;-15.74531995;735.65;145;383;1,256.61;;;13477;Rural Adjacente;21393.81;8.48;87001.62;48432.63;165310.66;18.73;184041.19;13513;13619.57;Administração, defesa, educação e saúde públicas e seguridade social;22038726;72;8;1;3;0;0;1;39;2;4;0;0;0;3;1;2;3;3;0;2;0;0;;;1;0;1;0;22138687;0;825;936;0;;;;4
Agudo;RS;0;16722;16718;4;5431;2410;3021;6792;76;282;415;533;4458;1028;19914;199426;2103;0.69;0.752;0.847;0.524;-53.25869169;-29.64566336;65.79;641;1120;534.62;Central;D;16524;Rural Adjacente;100.34;72157.95;140967.94;73969.53;387432.56;36214.54;423647.09;17102;24771.79;Demais serviços;42334741;485;0;0;49;1;0;11;180;76;19;4;4;10;16;12;3;19;16;12;53;0;0;;;0;3;0;3;0;282009388;5888;2075;14;;;;1
Agudos;SP;0;34524;34515;9;10201;9769;432;32261;433;1767;2250;2777;21424;3610;15695;100430;662;0.745;0.705;0.845;0.694;-48.99015629;-22.474037;601.38;2708;5221;966.71;Coração Paulista;D;37023;Urbano;59.18;1393905.34;628.75;160194.06;2242019.8;320966.4;2562986.2;36704;69828.53;Indústrias de transformação;142168689;840;46;0;91;0;3;38;365;50;64;3;5;4;33;36;2;23;27;15;35;0;0;;;3;2;3;2;199136608;324995492;12644;4808;9;;;;2
Agudos Do Sul;PR;0;8270;8270;0;2579;879;1700;1826;34;103;143;192;1186;168;7149;49747;2900;0.66;0.671;0.79;0.543;-49.33870188;-25.99061809;869.33;429;500;192.26;Rotas Do Pinhão;D;9269;Rural Adjacente;59237.46;8978.95;53725.66;36392.28;158.33;9632.67;167967.02;9073;18512.84;Agricultura, inclusive apoio à agricultura e a pós colheita;17241226;148;0;1;11;0;1;7;80;15;8;0;0;0;2;7;2;1;8;1;4;0;0;;;1;0;1;0;32280166;0;3042;1182;0;;;;2
Águia Branca;ES;0;9519;9513;6;2952;1014;1938;3044;40;172;216;261;1971;384;7388;105497;2494;0.68;0.66;0.792;0.595;-40.73663817;-18.98736137;153.66;75;261;454.45;;;9653;Rural Adjacente;29863.9;22982.02;53363.01;45739.75;151948.69;13829.13;165777.82;10075;16454.37;Administração, defesa, educação e saúde públicas e seguridade social;27549705;232;4;6;11;0;2;3;88;9;11;2;0;1;5;9;5;14;1;4;57;0;0;;;0;1;0;1;0;23227081;1481;2976;2;;;;3
Aguiar;PB;0;5530;5530;0;1660;864;796;2699;32;177;201;245;1611;433;448;200;4229;0.597;0.632;0.753;0.447;-38.17758184;-7.094805762;272.19;9;35;344.71;;;5571;Rural Adjacente;4931.35;2180.67;10267.71;25408.05;42787.78;1560.32;44348.09;5567;7966.25;Administração, defesa, educação e saúde públicas e seguridade social;17161265;28;0;0;1;0;1;2;12;1;2;0;0;0;0;0;2;2;1;0;4;0;0;;;;;;;;;272;721;0;;;;1
Aguiarnópolis;TO;0;5162;5162;0;1323;1067;256;4117;93;360;480;438;2486;260;394;14544;2981;0.657;0.618;0.804;0.571;-47.47045659;-6.547170821;173.19;63;89;235.39;;;6572;Urbano;38385.5;7299.64;38614.35;36937.29;121236.78;13384.4;134621.18;6307;21344.72;Administração, defesa, educação e saúde públicas e seguridade social;16061415;42;3;2;2;0;0;5;13;3;5;0;0;0;0;1;4;2;0;0;2;0;0;;;;;;;;;472;1156;0;;;;1
Aimorés;MG;0;24959;24959;0;8242;6571;1671;19057;231;961;1401;1582;11874;3008;3912;32955;2340;0.684;0.685;0.81;0.576;-41.07332746;-19.49195015;64;906;2031;1,348.91;Trilhas Do Rio Doce;D;25193;Intermediário Adjacente;44773.35;79812.36;166681.56;97148.79;388416.05;21787.4;410.2;25703;15959.36;Demais serviços;45443313;490;4;8;32;0;1;15;215;29;31;3;0;4;23;13;2;30;25;8;47;0;0;;;1;2;1;2;28036081;395574331;3769;4838;1;;;;9
Aiquara;BA;0;4602;4602;0;1376;786;590;2673;40;156;256;245;1625;351;2910;5677;4573;0.583;0.573;0.733;0.471;-39.88577801;-14.12727749;155.1;66;100;167.88;;;4478;Rural Adjacente;16939.34;2591.36;8920.58;20019.67;48470.94;1345.27;49816.22;4745;10498.68;Administração, defesa, educação e saúde públicas e seguridade social;;34;2;0;0;0;0;2;22;0;0;0;0;0;3;0;2;1;0;0;2;0;0;;;;;;;;;172;260;0;;;;1
Aiuaba;CE;0;16203;16203;0;4451;1252;3199;3939;59;243;300;364;2382;591;11125;5315;4871;0.569;0.518;0.749;0.474;-40.12316008;-6.56329844;472.22;72;142;2,434.42;;;17303;Rural Adjacente;11971.83;2476.92;29123.54;53934.2;97506.49;4167.4;101673.89;17098;5946.54;Administração, defesa, educação e saúde públicas e seguridade social;31669431;94;4;0;3;0;0;1;67;0;1;0;0;0;3;1;2;2;2;0;8;0;0;;;0;1;0;1;0;12641618;423;2253;0;;;;2
Aiuruoca;MG;0;6162;6154;8;2028;1043;985;3042;28;113;206;235;1966;494;1260;4699;2735;0.67;0.677;0.871;0.505;-44.60282446;-21.97589666;979.43;486;381;649.68;Terras Altas Da Mantiqueira;D;6032;Rural Adjacente;31727.27;4854.93;32791.09;24.7;94075.36;4553.23;98628.59;6224;15846.5;Demais serviços;13778976;112;3;1;13;0;0;0;45;9;14;2;1;0;3;1;2;0;5;4;9;0;0;;;1;0;1;0;129835678;0;1585;914;0;;;;1
Ajuricaba;RS;0;7255;7253;2;2467;1430;1037;4098;50;173;255;302;2662;656;28841;75814;503;0.753;0.763;0.85;0.658;-53.77281889;-28.23772901;329.68;96;531;322.67;Rota Do Yucumã;D;7063;Rural Adjacente;92358.83;17703.29;101150.78;33158.25;244371.15;19167.99;263539.13;7372;35748.66;Agricultura, inclusive apoio à agricultura e a pós colheita;;295;4;0;27;0;0;4;128;26;9;5;1;1;10;2;2;9;9;17;41;0;0;;;0;2;0;2;0;218950156;3072;872;0;;;;1
Alagoa;MG;0;2709;2706;3;875;364;511;1099;13;40;69;98;716;163;15;28;3145;0.649;0.634;0.832;0.518;-44.63809887;-22.17113566;1115.52;162;92;161.36;Terras Altas Da Mantiqueira;E;2683;Rural Adjacente;5038.89;1801.15;8576.31;14931.86;30348.21;1087.8;31.44;2756;11406.39;Administração, defesa, educação e saúde públicas e seguridade social;11323019;35;2;0;4;0;0;0;19;3;0;0;0;0;0;1;2;2;2;0;0;0;0;;;;;;;;;479;332;0;;;;1
Alagoa Grande;PB;0;28479;28479;0;8014;5137;2877;17520;236;1027;1451;1668;10422;2716;4984;20712;4599;0.58;0.576;0.797;0.43;-35.63389198;-7.036775;143.25;298;438;320.56;Brejo;D;28623;Intermediário Adjacente;16117.69;11375.93;75378.12;123.1;225974.75;13681.81;239656.56;28604;8378.43;Administração, defesa, educação e saúde públicas e seguridade social;45438117;238;0;1;19;0;0;6;112;4;5;3;0;6;5;5;3;22;3;1;43;0;0;;;1;2;1;2;17358627;228876178;1788;3396;0;;;;3
Alagoa Nova;PB;0;19681;19681;0;5435;2833;2602;9794;176;627;875;939;5844;1333;5795;24722;4734;0.58;0.567;0.749;0.451;-35.75945654;-7.057798825;514.3;45;265;123.73;Brejo;D;20589;Rural Adjacente;80030.8;24.67;46472.26;89563.64;240733.5;10.12;250857.3;20596;12179.9;Administração, defesa, educação e saúde públicas e seguridade social;39834147;121;4;0;14;0;0;1;79;1;1;1;0;1;2;2;3;3;2;1;6;0;0;;;0;1;0;1;0;53703174;1647;1917;0;;;;1
Alagoinha;PE;0;13759;13753;6;4108;2410;1698;7769;120;502;666;742;4635;1104;638;611;4184;0.599;0.569;0.801;0.472;-36.77545601;-8.466270523;731.32;318;427;216.45;;;14554;Rural Adjacente;21.34;2580.54;33068.69;57170.78;114158.97;4811.88;118970.85;14431;8244.12;Administração, defesa, educação e saúde públicas e seguridade social;31782188;61;0;0;5;0;0;0;43;1;0;0;0;0;3;1;4;2;0;0;2;0;0;;;0;1;0;1;0;25113414;1210;1153;0;;;;1
Alagoinha;PB;0;13576;13576;0;3703;2490;1213;8998;173;639;868;944;5261;1113;1424;5058;4268;0.595;0.574;0.795;0.462;-35.54549135;-6.948140405;142.42;102;122;96.98;Brejo;E;14367;Rural Adjacente;8557.92;3190.95;22819.77;61289.9;95858.53;3705.89;99.56;14376;6925.74;Administração, defesa, educação e saúde públicas e seguridade social;29417339;108;1;0;10;1;0;3;54;1;0;0;0;0;1;2;2;14;1;2;16;0;0;;;;;;;;;936;1703;0;;;;1
Alagoinha Do Piauí;PI;0;7341;7341;0;2278;885;1393;2668;28;148;174;226;1725;367;9483;1855;5394;0.531;0.535;0.716;0.391;-40.93463482;-7.00817528;279.24;11;42;535.81;;;7636;Rural Adjacente;3274.36;1600.93;10679.66;28.28;43.84;1995.57;45834.39;7515;6099.05;Administração, defesa, educação e saúde públicas e seguridade social;13740823;53;0;0;0;0;0;0;30;0;0;0;0;0;1;1;4;5;3;0;9;0;0;;;;;;;;;485;639;0;;;;1
Alagoinhas;BA;0;141949;141929;20;41702;36764;4938;123051;1704;6649;8980;10393;82616;12709;2585;16886;2385;0.68;0.681;0.79;0.592;-38.42261577;-12.13418259;141.14;3562;14838;707.56;Caminhos Do Sertão;C;150832;Urbano;73996.69;614852.01;1399738.5;483017.85;2571605.05;605.97;3177574.83;155362;20452.72;Demais serviços;290162506;2231;23;5;118;0;6;63;1006;72;121;33;11;14;68;142;3;169;144;30;203;0;0;1;120;5;5;3;3;562260923;2141509149;24457;21546;3;;;;3
Alambari;SP;0;4884;4876;8;1526;1135;391;3671;49;225;297;350;2328;422;5271;31280;1569;0.71;0.682;0.805;0.658;-47.89358839;-23.55389889;609.66;270;492;159.60;;;5918;Urbano;29984.18;7.03;23.78;23097.09;83.9;3387.06;87284.02;5658;15426.66;Administração, defesa, educação e saúde públicas e seguridade social;;137;61;0;14;0;0;4;31;3;8;2;0;3;0;2;2;2;0;0;5;0;0;;;;;;;;;1260;696;3;;;;1
Albertina;MG;0;2913;2910;3;899;639;260;1998;26;90;127;181;1273;301;1506;19808;2617;0.67;0.684;0.813;0.549;-46.61160257;-22.19976448;992.11;118;115;58.01;Malhas Do Sul De Minas;E;3003;Rural Adjacente;8057.43;4024.94;38868.2;15487.35;66437.91;11981.65;78419.56;3040;25795.91;Comércio e reparação de veículos automotores e motocicletas;11479747;72;1;0;13;0;0;4;30;1;5;0;0;0;3;1;2;4;0;3;5;0;0;;;;;;;;;947;379;0;;;;1
Alcântara;MA;0;21851;21851;0;6084;1683;4401;6383;79;443;584;637;4111;529;1671;3831;4798;0.573;0.525;0.753;0.475;-44.41701254;-2.403276525;29.72;389;308;1,168.25;Polo  São Luís;D;22083;Rural Adjacente;14464.15;7861.43;29391.33;61419.05;113135.95;4358.64;117494.58;21667;5422.74;Administração, defesa, educação e saúde públicas e seguridade social;46725621;124;3;0;3;0;0;8;32;3;4;0;0;0;0;4;2;3;2;2;58;0;0;1;25;1;0;1;0;18171127;0;327;1282;0;;;;1
Alcântaras;CE;0;10771;10762;9;2859;976;1883;3446;48;214;261;339;2156;428;2209;2058;4144;0.6;0.549;0.751;0.524;-40.54463812;-3.586983769;655.5;256;126;138.61;Vale Do Acaraú;E;11529;Rural Adjacente;4394.86;2209.41;14985.36;36237.48;57.83;1755.04;59582.16;11391;5230.63;Administração, defesa, educação e saúde públicas e seguridade social;;82;0;0;3;0;0;2;45;2;1;0;0;1;0;5;2;2;0;1;18;0;0;;;;;;;;;668;2963;0;;;;2
Alcantil;PB;0;5239;5239;0;1567;639;928;2062;40;132;162;197;1294;237;516;47;4673;0.578;0.55;0.765;0.458;-36.06060433;-7.741477038;518.67;32;65;305.99;;;5473;Rural Adjacente;3993.56;1382.8;6.69;25986.71;38.06;899.96;38957.06;5475;7115.44;Administração, defesa, educação e saúde públicas e seguridade social;13445071;37;1;0;5;0;0;0;16;1;0;1;0;0;0;1;2;6;1;0;3;0;0;;;;;;;;;297;274;0;;;;1
Alcinópolis;MS;0;4569;4562;7;1587;1071;516;3008;38;183;248;270;2014;255;11526;38982;1578;0.711;0.733;0.858;0.572;-53.70808963;-18.32503398;430.93;173;341;4,399.68;Rota Norte;E;5268;Rural Remoto;81035.73;4293.81;24192.23;38195.42;147717.19;9295.8;157012.98;5114;30702.58;Pecuária, inclusive apoio à pecuária;30320411;60;7;0;2;0;2;1;28;3;4;0;1;0;3;1;2;1;3;0;2;0;0;2;59;;;;;;;847;1044;1;;;;1
Alcobaça;BA;0;21271;21261;10;6068;3240;2828;11788;216;865;1110;1235;7307;1055;3419;38318;3982;0.608;0.611;0.771;0.476;-39.19421432;-17.51893334;6.4;816;570;1,482.29;Costa Das Baleias;C;22449;Rural Adjacente;80343.48;12392.21;79154.8;78023.71;249914.19;10219.92;260134.12;23331;11149.72;Administração, defesa, educação e saúde públicas e seguridade social;48798422;176;7;0;6;0;0;4;98;8;22;0;0;0;3;4;2;4;0;2;16;0;0;;;0;2;0;2;0;258294772;1342;2032;0;;;;2
Aldeias Altas;MA;0;23952;23952;0;5795;3388;2407;13620;303;1343;1513;1538;7864;1059;9756;78843;5492;0.513;0.5;0.72;0.374;-43.46873485;-4.630779495;80.49;82;45;1,942.12;;;26302;Intermediário Adjacente;31.99;9704.76;38558.93;81.62;161878.31;7373.48;169251.79;26115;6481.02;Administração, defesa, educação e saúde públicas e seguridade social;57710611;91;1;0;2;0;0;0;35;1;1;0;0;0;0;1;2;36;0;0;12;0;0;;;;;;;;;327;2271;0;;;;
Alecrim;RS;0;7045;7008;37;2473;806;1667;2160;18;68;110;141;1312;511;4383;22657;2628;0.672;0.683;0.852;0.522;-54.76709622;-27.66107446;307.85;86;221;316.51;Rota Do Rio Uruguai;D;6077;Rural Adjacente;28755.92;3208.81;36556.86;28258.74;96780.33;4.39;101174.25;6799;14880.75;Administração, defesa, educação e saúde públicas e seguridade social;17492090;138;1;0;9;0;0;0;73;5;6;0;1;3;3;3;2;9;5;8;10;0;0;;;0;1;0;1;0;45506761;2332;1076;1;;;;1
Alegre;ES;0;30768;30768;0;9960;7198;2762;20375;257;975;1352;1626;13224;2941;5112;35707;1277;0.721;0.708;0.839;0.63;-41.53648832;-20.76326514;258.9;1250;2002;772.00;Caparaó;C;30568;Intermediário Adjacente;48036.64;100250.47;185604.59;127799.1;461690.8;25613.59;487304.4;32175;15145.44;Demais serviços;75746241;754;3;9;36;0;1;19;358;16;66;7;3;1;34;36;4;38;29;18;76;0;0;1;27;1;3;1;3;39670421;372251110;6761;4542;1;;;;
Alegrete;RS;0;77653;77589;64;25963;23062;2901;69238;846;3249;4535;5888;44427;10293;89401;479259;791;0.74;0.72;0.849;0.664;-55.79587015;-29.78204321;94.73;4757;9935;7,800.16;Fronteira;C;74173;Urbano;389201.92;207399.24;797319.46;335178.74;1729099.36;124428.53;1853527.89;78244;23689.07;Demais serviços;176442536;1862;22;3;76;2;3;70;980;71;113;28;7;17;60;143;6;77;45;34;105;0;0;2;154;3;4;3;3;373979154;1489638304;21837;8230;23;;;1;2
Alegrete Do Piauí;PI;0;5153;5153;0;1489;868;621;2834;49;181;231;270;1785;318;4535;846;4538;0.585;0.564;0.749;0.475;-40.85786299;-7.245349466;410.89;54;136;243.73;;;4912;Rural Adjacente;2646.67;1052.53;9481.72;18739.7;31920.61;2098.26;34018.86;4835;7035.96;Administração, defesa, educação e saúde públicas e seguridade social;;41;0;0;1;0;1;0;27;0;0;0;0;0;0;2;3;0;0;0;7;0;0;;;;;;;;;175;296;0;;;;1
Alegria;RS;0;4301;4297;4;1495;575;920;1585;11;62;109;112;956;335;11054;31726;2074;0.695;0.717;0.818;0.572;-54.05736641;-27.83729996;358.2;26;95;172.40;Rota Do Rio Uruguai;E;3559;Rural Adjacente;38174.77;4275.82;33.78;22.28;98517.51;8281.52;106799.03;4085;26144.19;Agricultura, inclusive apoio à agricultura e a pós colheita;14802901;86;0;0;8;0;2;0;40;9;4;0;0;0;5;1;7;1;4;1;4;0;0;;;0;1;0;1;0;25807023;1224;650;0;;;;2
Além Paraíba;MG;0;34349;34349;0;11190;10495;695;31942;383;1595;2154;2581;20557;4672;106;537;1147;0.726;0.713;0.857;0.626;-42.6959466;-21.87680371;149.03;2855;4321;510.25;Serras E Cachoeiras;D;35321;Urbano;8789.08;164690.46;434.47;132796.25;740.74;79638.64;820.38;35795;22918.85;Demais serviços;67637377;2938;4;7;46;0;3;20;1677;206;68;463;7;6;47;141;2;41;56;17;127;0;0;;;3;2;2;2;176613405;414861611;14176;5528;0;;;;4
Alenquer;PA;0;52626;52615;11;12119;6674;5445;27641;535;2342;3165;3483;15393;2723;16651;102428;4971;0.564;0.529;0.779;0.436;-54.74086235;-1.951397505;39.13;254;140;23,645.45;Tapajós;D;56480;Urbano;292652.11;29108.18;115447.53;206973.6;644181.42;15308.35;659.49;54960;11999.45;Agricultura, inclusive apoio à agricultura e a pós colheita;;245;3;1;14;0;0;5;179;6;2;1;1;0;2;4;3;3;7;1;13;0;0;;;1;3;1;3;11084681;232943586;984;7671;0;;;;1
Alexandria;RN;0;13507;13507;0;3945;2732;1213;9169;106;567;696;805;5534;1461;92;0;4020;0.606;0.581;0.779;0.491;-38.01928889;-6.417136338;309.05;187;157;381.21;Polo Serrano;D;13602;Rural Adjacente;3193.48;5366.42;43051.16;62.4;114015.52;4749;118764.52;13839;8581.87;Administração, defesa, educação e saúde públicas e seguridade social;40064068;208;2;0;4;0;1;3;129;5;7;0;0;0;4;6;3;8;10;5;21;0;0;;;0;1;0;1;0;74602302;1805;2661;0;;;;1
Alexânia;GO;0;23814;23814;0;7426;6077;1349;19118;267;1196;1759;1937;12062;1897;10703;41947;2389;0.682;0.664;0.841;0.568;-48.50963639;-16.08616762;1076.72;574;1825;847.89;Região Turística Do Ouro E Cristais;C;27288;Intermediário Adjacente;49969.55;145340.64;872356.39;100352.83;1168019.41;232.93;1400948.24;26457;52951.89;Comércio e reparação de veículos automotores e motocicletas;59707413;501;11;0;49;0;2;17;246;24;41;7;2;7;12;22;5;16;13;5;22;0;0;1;8;1;3;1;3;49359519;251907758;6673;3027;3;;;;2
Alfenas;MG;0;73774;73735;39;23238;21862;1376;68964;867;3482;4616;5613;45941;8445;29642;195083;352;0.76;0.737;0.841;0.712;-45.9489182;-21.42817812;877.34;5519;10406;850.45;Lago De Furnas;C;79481;Urbano;171051.37;387645.14;1176081.39;298291.01;2033068.9;261586.15;2294655.05;79222;28964.87;Demais serviços;189730329;2456;19;4;191;0;7;109;1116;67;182;46;28;32;98;127;4;70;219;28;109;0;0;1;140;5;3;4;2;1094209443;1528709329;27210;10138;0;;;;5
Alfredo Chaves;ES;0;13955;13955;0;4584;2223;2361;6541;90;344;400;451;4401;855;8242;113235;1608;0.71;0.703;0.832;0.611;-40.76004965;-20.63034754;64.79;690;654;615.68;Costa E Da Imigração;D;14566;Rural Adjacente;91128.86;62384.46;109342.37;63200.13;326.06;24.06;350113.64;15029;23295.87;Demais serviços;;831;2;3;38;0;2;32;339;40;22;28;20;20;141;58;3;26;25;5;27;0;0;;;0;3;0;3;0;179767662;3847;3216;12;;;;7
Alfredo Marcondes;SP;0;3891;3891;0;1352;1135;217;2685;25;105;168;176;1680;531;466;2186;761;0.741;0.682;0.84;0.71;-51.41293807;-21.95274112;414.2;129;436;118.92;;;4147;Urbano;6309.72;14823.54;25.09;18132.19;64.35;10076.8;74431.59;4118;18074.69;Demais serviços;;107;31;0;9;0;0;3;37;3;3;0;3;1;4;6;2;0;0;0;5;0;0;;;0;1;0;1;0;35239550;1449;429;0;;;;1
Alfredo Vasconcelos;MG;0;6075;6075;0;1781;1183;598;4031;43;231;318;356;2669;414;290;4634;2551;0.675;0.629;0.834;0.587;-43.77388995;-21.13942346;1066.12;330;315;130.82;Trilha Dos Inconfidentes;E;6831;Urbano;30248.75;9882.3;22467.81;26252.76;88.85;4376.65;93228.27;6709;13896;Administração, defesa, educação e saúde públicas e seguridade social;12692165;130;4;0;12;0;0;3;49;18;4;0;0;1;3;7;4;5;6;3;11;0;0;;;;;;;;;1468;895;1;;;;2
Alfredo Wagner;SC;0;9410;9410;0;2959;958;2001;2862;24;126;189;222;1910;391;8092;91469;2723;0.67;0.702;0.882;0.481;-49.3438123;-27.70539633;489.1;447;580;735.37;Grande Florianópolis;D;9984;Rural Adjacente;135897.77;14491.11;73222.64;39074.11;262685.63;9079.29;271764.91;9905;27437.14;Agricultura, inclusive apoio à agricultura e a pós colheita;;354;9;2;28;0;0;6;186;14;35;2;4;0;9;7;1;21;5;3;22;0;0;2;83;0;1;0;1;0;99122118;3283;2426;5;;;;1
Algodão De Jandaíra;PB;0;2366;2366;0;676;353;323;1231;22;113;119;128;714;135;255;170;5241;0.55;0.532;0.749;0.413;-36.0060934;-6.904694038;444.7;72;17;220.25;;;2488;Rural Adjacente;1416.71;0.67;4343.97;16144.88;22580.33;0.57;23153.99;2488;9306.27;Administração, defesa, educação e saúde públicas e seguridade social;12540881;18;0;0;1;0;0;0;3;0;0;0;0;0;0;1;2;1;0;0;10;0;0;;;;;;;;;198;104;0;;;;1
Alhandra;PB;0;18007;18007;0;5021;3166;1855;11119;212;827;1102;1180;6865;933;1667;18469;4598;0.58;0.544;0.778;0.465;-34.91198516;-7.432995302;57.48;141;183;182.66;;;19391;Urbano;27741.33;91386.66;484.57;100634.56;704336.32;159664.66;864;19412;44508.6;Comércio e reparação de veículos automotores e motocicletas;;173;4;0;16;0;1;12;98;4;6;1;0;3;3;4;4;3;1;1;12;0;0;;;0;1;0;1;0;70442051;1866;2641;0;;;;2
Aliança;PE;0;37415;37415;0;10295;5665;4630;22615;357;1388;1995;2197;14170;2508;10090;43934;4077;0.604;0.565;0.799;0.488;-35.2285015;-7.604729808;112.19;779;739;272.77;Engenhos E Maracatus;D;38375;Intermediário Adjacente;45102.56;17659.18;84.86;160673.86;308290.99;11846.51;320.14;38261;8367.2;Administração, defesa, educação e saúde públicas e seguridade social;61904663;295;13;1;17;0;0;1;180;19;9;1;0;0;11;6;3;5;4;6;19;0;0;1;48;0;1;0;1;0;64507540;3150;3110;0;;;;7
Aliança Do Tocantins;TO;0;5671;5668;3;1726;1435;291;4743;76;288;444;501;2890;544;7124;19172;2835;0.66;0.61;0.801;0.596;-48.94124002;-11.30374305;335.7;94;296;1,579.75;;;5434;Intermediário Adjacente;36098.32;3363.23;18963.87;32037.96;90463.38;3836.97;94300.34;5565;16945.25;Administração, defesa, educação e saúde públicas e seguridade social;14127101;78;4;1;2;0;0;3;43;5;2;0;0;0;2;1;2;2;1;1;9;0;0;;;0;1;0;1;0;57763321;623;897;0;;;;1
Almadina;BA;0;6357;6357;0;1983;1552;431;5067;90;270;378;534;3007;788;3357;14006;4995;0.563;0.563;0.751;0.421;-39.63590318;-14.70604775;290.73;126;173;245.24;;;5566;Intermediário Adjacente;19223.72;2913.59;10690.69;21626.87;54454.88;978.85;55433.72;6062;9144.46;Administração, defesa, educação e saúde públicas e seguridade social;;45;0;0;2;0;0;1;32;0;2;0;0;0;0;1;2;1;0;0;4;0;0;;;;;;;;;341;224;0;;;;1
Almas;TO;0;7586;7586;0;2090;1607;483;5933;126;499;644;795;3348;521;16574;27979;3384;0.636;0.616;0.796;0.524;-47.17417168;-11.57452347;420.74;129;156;4,013.24;Serras Gerais;D;7131;Intermediário Remoto;60995.7;4076.1;15287.14;41025.41;121384.35;4074.8;125459.14;7340;17092.53;Administração, defesa, educação e saúde públicas e seguridade social;;73;5;2;5;0;0;2;41;1;5;0;0;0;3;2;2;1;1;0;3;0;0;1;70;;;;;;;469;866;1;;;;1
Almeirim;PA;0;33614;33606;8;7729;4813;2916;19899;407;1669;2070;2372;12220;1161;751;12004;3264;0.642;0.659;0.809;0.497;-52.57683509;-1.527338803;18.73;3119;324;72,954.80;Tapajós;D;34142;Intermediário Remoto;70149.23;182933.64;138251.66;138523.99;529.86;59451.92;589310.45;33282;17706.58;Administração, defesa, educação e saúde públicas e seguridade social;88490749;309;12;0;11;0;0;4;190;17;14;3;0;0;5;6;2;31;7;1;6;0;0;;;1;3;1;2;75167787;132714271;1098;1838;5;;;;2
Almenara;MG;0;38775;38767;8;11571;9408;2163;31551;428;1838;2519;2827;20068;3871;1424;6690;3262;0.642;0.636;0.803;0.518;-40.69765118;-16.18061617;197.37;881;2576;2,294.43;Vale Do Jequitinhonha;D;41642;Urbano;15945.66;50501.85;222897.45;157.62;446962.43;27581.9;474544.34;41552;11420.49;Demais serviços;60421401;768;3;8;38;0;1;26;411;23;46;10;5;6;26;28;4;26;16;10;81;0;0;1;10;2;3;2;3;86814675;621276806;4937;6703;0;;;;2
Almino Afonso;RN;0;4871;4871;0;1436;1035;401;3468;47;213;260;315;2200;433;189;208;3611;0.624;0.578;0.739;0.568;-37.7631253;-6.157420693;243.27;49;27;128.04;;;4761;Rural Adjacente;1990.59;1184.88;8133.56;21648.95;32957.98;1050.78;34.01;4876;6974.73;Administração, defesa, educação e saúde públicas e seguridade social;13032035;38;0;1;1;0;0;2;21;3;0;0;0;0;1;1;2;3;0;1;2;0;0;;;;;;;;;363;927;0;;;;1
Almirante Tamandaré;PR;0;103204;103137;67;30414;29168;1246;87717;1446;5929;7459;9038;57764;6081;2382;14654;1953;0.7;0.706;0.84;0.575;-49.30031982;-25.3133776;956.94;7202;21018;194.74;Rotas Do Pinhão;D;117168;Urbano;31875.36;343640.04;523548.21;385217.32;1284280.93;112008.34;1396289.27;114129;12234.31;Demais serviços;129135425;1971;7;23;344;0;7;204;796;90;114;25;14;15;45;91;3;58;26;14;95;0;0;;;2;2;2;2;104170968;624805512;36568;11082;12;;;;3
Almirante Tamandaré Do Sul;RS;0;2067;2067;0;731;305;426;837;9;38;42;56;562;130;22933;77474;790;0.74;0.732;0.828;0.669;-52.91371455;-28.11372629;601.97;25;76;265.33;;;1979;Rural Adjacente;76473.85;6058.01;34496.61;13932.79;130961.26;6.87;137834.05;2085;66107.46;Agricultura, inclusive apoio à agricultura e a pós colheita;13042456;74;2;0;6;0;2;2;24;8;4;1;0;0;1;1;2;5;1;2;13;0;0;;;;;;;;;803;273;2;;;;1
Aloândia;GO;0;2051;2051;0;801;695;106;1765;14;85;91;142;1104;329;3623;10224;2004;0.7;0.694;0.834;0.585;-49.48232111;-17.72490885;607.58;28;86;102.16;;;2005;Rural Adjacente;11.12;2126.89;12264.7;11383.55;36893.83;1.85;38746.1;2075;18672.82;Administração, defesa, educação e saúde públicas e seguridade social;9391512;40;0;2;5;0;0;1;18;2;1;0;0;0;2;1;5;1;0;0;2;0;0;;;1;0;1;0;25035026;0;473;454;0;;;;1
Alpercata;MG;0;7172;7166;6;2215;1737;478;5617;60;308;480;623;3453;693;323;2006;3187;0.65;0.629;0.824;0.521;-41.98912911;-18.98683126;192.62;81;326;166.97;;;7411;Rural Adjacente;5570.98;6606.75;28.11;31097.93;71385.25;5227.92;76613.17;7497;10219.18;Administração, defesa, educação e saúde públicas e seguridade social;16616047;94;2;1;13;0;0;9;36;7;3;0;0;1;4;3;3;8;1;0;3;0;0;;;;;;;;;823;726;0;;;;2
Alpestre;RS;0;8027;8027;0;2688;795;1893;2143;20;93;136;159;1358;377;9206;58546;2649;0.67;0.7;0.795;0.543;-53.03736605;-27.24876876;447.89;42;247;325.98;Rota Águas E Pedras;D;6458;Rural Adjacente;49752.94;318;38.29;39.44;445485.01;6.04;451.53;7533;59940.16;Eletricidade e gás, água, esgoto, atividades de gestão de resíduos e descontaminação;31608705;187;0;0;14;0;0;3;67;31;8;3;0;0;3;3;4;6;8;17;20;0;0;;;0;1;0;1;0;57138323;2231;1137;0;;;;3
Alpinópolis;MG;0;18488;18478;10;5625;4564;1061;14884;185;759;1051;1373;9775;1741;10175;84531;1182;0.725;0.703;0.862;0.629;-46.38948253;-20.86185466;870.15;542;932;454.75;Nascentes Das Gerais;D;19745;Urbano;73.62;24646.52;151496.96;71337.19;321102.9;26324.39;347427.29;19741;17599.27;Demais serviços;34302000;495;1;13;55;0;1;26;194;54;20;10;1;10;27;8;6;17;18;5;29;0;0;;;2;2;2;2;56622524;296820017;7244;2306;1;;;;1
Alta Floresta;MT;0;49164;49124;40;15199;13203;1996;39877;564;2448;3250;3747;26872;2996;29056;84426;1498;0.71;0.709;0.817;0.629;-56.09161044;-9.871722597;273.54;2765;5771;8,953.19;Região Turística Amazônia Mato-Grossense;C;51615;Urbano;107068.33;147879.56;831873.57;289223.37;1376044.84;207738.45;1583783.3;50082;31623.8;Demais serviços;;1505;48;6;149;1;3;60;700;63;84;25;7;16;88;68;4;56;47;13;67;0;0;3;95;3;2;3;2;291375047;948266566;11556;24680;1;;;;2
Alta Floresta D'Oeste;RO;0;24392;24392;0;7276;4306;2970;13804;203;869;1159;1281;9023;1269;18288;101470;3283;0.64;0.657;0.763;0.526;-61.9998239;-11.9355403;337.74;240;687;7,067.03;Vale Do Guaporé;D;23167;Intermediário Adjacente;166143.38;31.27;114455.32;142727.55;454596.58;23186.17;477782.74;25506;18732.17;Administração, defesa, educação e saúde públicas e seguridade social;50218466;508;3;1;38;7;4;26;270;23;20;8;1;3;12;10;4;21;13;6;38;0;0;;;1;2;1;2;38958866;245288714;2464;9268;1;;;;1
Altair;SP;0;3815;3815;0;1186;947;239;2998;43;189;220;249;1946;351;58202;344267;2261;0.687;0.698;0.8;0.581;-49.06011075;-20.52330488;555.87;368;279;313.01;;;4134;Rural Adjacente;138182.64;8361.9;30465.56;19528.99;196539.09;3562.18;200101.27;4085;48984.4;Agricultura, inclusive apoio à agricultura e a pós colheita;18582016;124;46;0;3;0;0;1;23;8;8;0;0;0;1;5;3;3;6;0;17;0;0;;;1;0;1;0;20018255;0;1040;189;1;;;;2
Altamira;PA;0;99075;99023;52;25619;22677;2942;79622;1387;5847;7891;8687;50556;5254;18544;113132;2792;0.665;0.662;0.811;0.548;-52.21437631;-3.20565951;104.75;1850;4628;159,533.33;Xingu;B;113195;Urbano;257761.36;571389.33;1054252.31;364763.26;2248166.26;224606.61;2472772.87;109938;22492.43;Demais serviços;;1768;10;13;130;1;3;100;935;46;103;18;5;14;67;85;5;74;79;13;67;0;0;1;41;5;6;3;4;471557677;2225758383;11102;41071;1;;;;3
Altamira Do Maranhão;MA;0;11063;11063;0;2632;1118;1515;3154;31;204;316;399;1872;332;2045;4230;5215;0.55;0.486;0.719;0.473;-45.46467583;-4.162269267;55.19;302;44;524.37;;;8066;Rural Adjacente;16154.12;2119.45;11951.13;30369.08;60.59;1600.23;62194.01;10210;6091.48;Administração, defesa, educação e saúde públicas e seguridade social;21254158;22;0;0;0;0;0;0;18;0;0;0;0;0;0;0;2;0;0;0;2;0;0;;;;;;;;;196;1008;0;;;;1
Altamira Do Paraná;PR;0;4306;4306;0;1390;720;670;2131;22;94;167;231;1350;267;2493;7847;2738;0.667;0.667;0.78;0.571;-52.70980745;-24.80100016;589.32;10;117;386.95;;;2209;Rural Adjacente;31423.59;2201.68;17308.7;17227.84;68.16;3590.24;71752.05;3143;22829.16;Pecuária, inclusive apoio à pecuária;17743322;52;0;0;4;0;0;1;31;2;3;0;0;0;3;1;2;1;2;0;2;0;0;;;;;;;;;921;578;0;;;;1
Altaneira;CE;0;6856;6856;0;2093;1567;526;4955;73;286;451;539;2798;808;1271;1626;4103;0.602;0.547;0.774;0.515;-39.74582064;-6.997498351;659.08;103;24;73.30;;;7521;Rural Adjacente;2787.07;1723.3;11823.93;27.13;43.47;1743.7;45212.17;7413;6099.04;Administração, defesa, educação e saúde públicas e seguridade social;;31;0;1;1;0;1;0;20;0;0;0;0;0;1;2;2;0;0;0;3;0;0;;;;;;;;;361;1142;0;;;;2
Alterosa;MG;0;13717;13717;0;4560;3348;1212;9956;135;511;730;849;6297;1434;7802;65470;2732;0.67;0.657;0.847;0.536;-46.14532056;-21.25586995;847.05;589;496;362.01;Lago De Furnas;D;14414;Rural Adjacente;55239.76;11257.25;81.64;54217.59;202351.24;10400.59;212751.84;14494;14678.61;Demais serviços;27510461;290;2;1;31;0;0;9;133;15;13;5;1;3;11;7;2;8;18;6;25;0;0;;;1;1;1;1;39578096;48777505;4388;2691;2;;;;2
Altinho;PE;0;22353;22345;8;7065;4186;2879;12756;153;690;1020;1182;7632;2079;1197;1395;4200;0.598;0.559;0.792;0.482;-36.05969976;-8.4895925;456.25;98;452;452.52;Encantos Do Agreste;D;22959;Intermediário Adjacente;10568.74;5.29;39294.83;78626.7;133784.53;6.05;139836.58;22886;6110.14;Administração, defesa, educação e saúde públicas e seguridade social;36724409;199;2;1;15;0;0;3;68;2;1;4;1;1;5;3;5;26;4;7;51;0;0;;;0;1;0;1;0;37310212;1536;2138;0;;;;2
Altinópolis;SP;0;15607;15601;6;4879;4301;578;13548;143;605;867;1075;8787;2071;43148;334377;1046;0.73;0.726;0.843;0.635;-47.37328029;-21.02458264;904.24;1851;2674;928.96;Alta Mogiana;D;16164;Urbano;155577.81;22.27;202475.05;63562.86;443882;18459.98;462341.98;16199;28541.39;Demais serviços;55755271;691;148;1;10;0;1;25;265;64;54;7;2;3;20;23;3;13;11;5;36;0;0;;;3;3;2;2;207939181;353716264;6215;914;0;;;;1
Alto Alegre;SP;0;4102;4102;0;1375;1096;279;3234;39;142;180;225;2037;611;12806;60259;1913;0.7;0.683;0.817;0.616;-50.1635968;-21.58168946;502.66;275;385;318.57;Tietê Vivo;E;4110;Rural Adjacente;39242.27;6.21;30843.43;20863.64;97157.84;4984.11;102141.95;4164;24529.77;Agricultura, inclusive apoio à agricultura e a pós colheita;17790840;201;75;0;10;0;0;1;46;34;10;0;0;0;4;6;2;3;2;2;6;0;0;;;0;1;0;1;0;43232972;1321;464;0;;;;3
Alto Alegre;RR;0;16448;16422;26;2169;1238;931;4766;93;380;583;551;2782;377;10421;82877;5302;0.542;0.518;0.813;0.379;-61.31402239;2.993822948;121.74;110;64;25,753.49;Roraima, A Savana Amazônica;D;15638;Rural Adjacente;66332.65;6432.65;25235.84;148481.43;246482.58;2.27;248754.49;16053;15495.83;Administração, defesa, educação e saúde públicas e seguridade social;;42;2;0;0;0;0;2;29;2;1;0;0;0;1;0;3;1;0;0;1;0;0;;;;;;;;;493;1226;0;;;;1
Alto Alegre;RS;0;1848;1848;0;624;272;352;743;10;27;31;56;493;126;7688;24941;625;0.747;0.756;0.859;0.642;-52.99075528;-28.77474554;386.5;25;111;115.34;;;1663;Rural Adjacente;29096.24;2564.19;18328.21;12078.74;62067.38;3978.95;66046.33;1815;36389.16;Agricultura, inclusive apoio à agricultura e a pós colheita;11148027;82;3;1;12;0;0;1;37;1;2;0;0;0;1;0;3;5;1;1;14;0;0;;;;;;;;;711;207;3;;;;1
Alto Alegre Do Maranhão;MA;0;24599;24599;0;5857;4621;1236;19366;338;1642;2035;2146;11559;1646;568;876;5148;0.55;0.516;0.744;0.444;-44.44824749;-4.207227;56.97;274;83;383.31;;;26839;Urbano;8154.95;16456.56;102561.96;70896.68;198070.15;18953.55;217023.7;26619;8152.96;Administração, defesa, educação e saúde públicas e seguridade social;43906689;99;1;0;3;0;0;4;54;1;3;0;1;0;0;0;2;19;1;1;9;0;0;;;;;;;;;642;3051;0;;;;1
Alto Alegre Do Pindaré;MA;0;31057;31057;0;7282;2408;4874;9823;212;824;1063;1198;5540;986;3347;7010;5081;0.56;0.465;0.774;0.483;-45.84207962;-3.665170374;17.6;242;201;1,876.03;;;31894;Rural Adjacente;23365.08;7655.26;42381.51;92307.2;165709.04;9941.02;175650.06;31303;5611.29;Administração, defesa, educação e saúde públicas e seguridade social;20953228;46;1;0;0;0;0;1;22;0;5;0;0;0;3;2;1;2;3;1;5;0;0;;;1;0;1;0;26403988;0;420;2614;0;;;;1
Alto Alegre Dos Parecis;RO;0;12816;12804;12;3706;1099;2607;3628;57;212;364;406;2317;272;23049;162436;4368;0.59;0.603;0.777;0.443;-61.85307717;-12.13177722;396.56;68;190;3,958.27;;;13227;Rural Adjacente;96143.01;10017.57;34152.2;80431.68;220744.47;9285.64;230030.11;13993;16438.94;Administração, defesa, educação e saúde públicas e seguridade social;29785703;125;1;0;9;1;0;1;95;1;0;0;0;0;1;3;3;3;2;0;5;0;0;;;;;;;;;909;3293;0;;;;1
Alto Araguaia;MT;0;15644;15638;6;5165;4503;662;13571;231;842;1071;1145;8980;1302;54288;163841;1803;0.7;0.712;0.802;0.612;-53.22026033;-17.31558994;669.95;688;1790;5,399.33;Região Turística Domo De Araguainha;D;18703;Urbano;143972.31;322623.33;253719.14;117696.89;838.01;59364.6;897376.26;17841;50298.54;Indústrias de transformação;81218358;470;7;3;15;1;5;21;219;50;21;7;1;0;17;15;5;19;35;3;26;0;0;;;0;2;0;2;0;271485255;2973;2785;0;;;;1
Alto Bela Vista;SC;0;2005;2005;0;678;219;459;605;7;28;31;50;399;90;1150;4989;459;0.755;0.734;0.882;0.664;-51.91103685;-27.43113788;493.86;89;300;103.96;Vale Do Contestado;E;1948;Rural Adjacente;16140.15;5998.06;10326.38;14186.41;46.65;2202.67;48.85;1977;24711.01;Administração, defesa, educação e saúde públicas e seguridade social;14484924;56;0;0;8;0;0;2;23;7;1;1;0;0;1;2;2;0;1;2;6;0;0;;;;;;;;;908;297;0;;;;1
Alto Boa Vista;MT;0;5247;5247;0;1162;966;196;3158;45;202;326;354;1999;232;34341;90321;3090;0.65;0.613;0.803;0.561;-51.37932207;-11.67674516;248.27;216;281;2,240.44;;;6659;Rural Remoto;31408.65;3659.05;26580.04;37.86;99510.49;6951.44;106461.92;6308;16877.29;Administração, defesa, educação e saúde públicas e seguridade social;;73;3;0;3;0;0;1;47;4;3;1;0;0;2;0;2;1;1;0;5;0;0;;;;;;;;;428;1334;0;;;;1
Alto Caparaó;MG;0;5297;5291;6;1725;1325;400;3915;43;222;295;357;2543;455;2949;28050;2878;0.66;0.666;0.842;0.514;-41.87308374;-20.44436112;958.77;280;229;103.69;Pico Da Bandeira;D;5799;Rural Adjacente;25513.7;3550.28;29386.75;24634.46;83085.18;4.2;87282.85;5748;15184.91;Agricultura, inclusive apoio à agricultura e a pós colheita;14110136;116;1;0;3;0;0;2;70;1;11;2;0;2;0;2;2;2;3;0;15;0;0;;;;;;;;;1532;1124;0;;;;1
Alto Do Rodrigues;RN;0;12305;12305;0;3591;2606;985;8841;161;558;716;761;5849;796;1416;16767;2626;0.672;0.647;0.8;0.585;-36.75949261;-5.293807788;8.35;379;146;191.33;;;14326;Rural Adjacente;39701.57;186994.13;83281.18;83.25;393227.9;32985.26;426.21;14143;30135.98;Eletricidade e gás, água, esgoto, atividades de gestão de resíduos e descontaminação;;186;18;0;5;0;1;9;101;3;10;1;0;0;3;14;2;7;4;2;6;0;0;2;67;0;2;0;2;0;103799628;1683;2486;5;;;;1
Alto Feliz;RS;0;2917;2917;0;1001;301;700;813;13;38;29;54;556;123;433;8156;927;0.73;0.74;0.886;0.603;-51.31581567;-29.39013917;317.3;292;290;78.85;Vale Do Caí;E;3020;Rural Adjacente;23451.5;19853.21;16742.26;16365.31;76412.28;6712.32;83124.6;3032;27415.76;Indústrias de transformação;13164097;102;0;0;28;0;0;2;32;8;5;0;2;0;0;3;4;4;1;2;11;0;0;;;;;;;;;1241;529;31;;;;1
Alto Garças;MT;0;10350;10338;12;3426;3125;301;9342;142;537;816;780;6062;1005;142262;404366;1876;0.701;0.707;0.835;0.583;-53.52845412;-16.94672218;776.91;646;1020;3,865.97;Região Turística Domo De Araguainha;D;11868;Intermediário Remoto;272281.02;23812.77;181859.25;66874.17;544827.21;41570.05;586397.25;11383;51515.18;Agricultura, inclusive apoio à agricultura e a pós colheita;36632596;216;6;4;11;0;0;9;99;26;11;0;1;1;7;7;4;7;6;2;15;0;0;1;24;1;1;1;1;46731937;258341616;2095;1817;0;;;;1
Alto Horizonte;GO;0;4505;4505;0;1453;1241;212;3858;58;276;305;343;2590;286;511;1806;1348;0.72;0.709;0.841;0.624;-49.33274916;-14.19922681;394.72;161;204;503.76;;;6218;Rural Adjacente;11393.07;238038.96;86.91;38620.71;374966.56;17227.59;392194.15;5629;69673.86;Indústrias extrativas;;118;0;1;8;0;3;13;48;6;9;2;0;0;6;12;2;0;5;1;2;0;0;;;;;;;;;1036;844;1;;;;1
Alto Jequitibá;MG;0;8318;8318;0;2736;1510;1226;4719;64;198;306;403;2949;799;5038;52815;2914;0.66;0.66;0.787;0.554;-41.96717511;-20.42292711;672.95;393;280;152.27;Pico Da Bandeira;D;8333;Rural Adjacente;25954.39;5415.21;34825.45;32412.78;98.61;5.31;103.91;8525;12189.26;Administração, defesa, educação e saúde públicas e seguridade social;14549456;169;1;0;13;0;0;5;80;5;10;0;1;0;5;4;3;12;3;2;25;0;0;;;1;0;1;0;14967507;0;2479;1709;0;;;;1
Alto Longá;PI;0;13646;13646;0;3965;2024;1941;6713;104;393;505;590;4169;952;3027;2658;4516;0.585;0.567;0.751;0.47;-42.21032196;-5.250993011;139.76;204;95;1,737.84;;;14268;Rural Adjacente;5132.74;3808.26;19997.42;54156.85;83.1;3623.06;86718.34;14040;6176.52;Administração, defesa, educação e saúde públicas e seguridade social;27589240;131;0;0;5;0;0;1;74;1;2;0;1;0;2;4;2;19;4;0;16;0;0;;;;;;;;;446;1969;0;;;;1
Alto Paraguai;MT;0;10066;10066;0;3094;1940;1154;6372;77;437;547;564;4028;719;10407;31453;3355;0.638;0.612;0.784;0.541;-56.49444166;-14.51471181;238;375;364;1,844.82;;;11238;Rural Remoto;22878.73;3169.29;22619.51;55331.93;103999.45;4795.55;108795;10814;10060.57;Administração, defesa, educação e saúde públicas e seguridade social;;58;2;1;1;0;0;3;36;0;0;0;0;0;1;2;2;5;2;0;3;0;0;;;0;1;0;1;0;50021620;651;1164;0;;;;2
Alto Paraíso;RO;0;17135;17130;5;5083;2434;2649;3299;55;177;298;368;2181;220;9830;44030;3590;0.625;0.664;0.804;0.457;-63.31762943;-9.716666738;128;267;498;2,651.82;Vale Do Jamari;D;20999;Rural Adjacente;74.25;22605.26;64270.39;111133.96;272257.08;14828.39;287.09;20569;13957.19;Administração, defesa, educação e saúde públicas e seguridade social;33731475;256;3;1;27;0;1;9;138;13;10;0;0;1;7;7;2;8;4;0;25;0;0;1;26;1;2;1;2;9613021;226555872;1641;4669;0;;;;1
Alto Paraíso;PR;0;3206;3199;7;1101;596;505;1761;18;106;149;159;1083;246;2770;23551;2487;0.68;0.677;0.829;0.556;-53.73289315;-23.50813074;392.88;11;136;967.77;Corredores Das Águas;E;2799;Rural Adjacente;38948.8;3.87;15889.25;21290.84;79998.63;3354.92;83.35;3037;27446.02;Pecuária, inclusive apoio à pecuária;20312589;80;4;2;6;0;0;3;30;2;2;1;0;0;3;2;2;2;3;2;16;0;0;;;;;;;;;897;471;0;;;;1
Alto Paraíso De Goiás;GO;0;6885;6834;51;2125;1637;488;5142;93;355;465;531;3295;403;14725;60249;1516;0.713;0.723;0.819;0.611;-47.51909344;-14.13624464;1232.61;1099;1077;2,593.91;Região Turística Da Chapada Dos Veadeiros;C;7558;Rural Adjacente;48493.7;9572.02;63800.55;28963.73;150830;9312.72;160142.72;7454;21484.13;Demais serviços;;287;5;0;7;0;2;8;84;9;82;8;0;5;14;16;3;10;3;5;26;0;0;3;96;1;1;1;1;26367386;32438398;1157;638;0;;;;2
Alto Paraná;PR;0;13663;13657;6;4311;3601;710;11190;179;616;851;943;7143;1458;10319;157086;2038;0.696;0.679;0.846;0.587;-52.32168244;-23.12712083;522.86;213;1029;407.72;;;14679;Rural Adjacente;80269.41;36343.16;81286.17;57629.76;255528.5;14341.61;269870.11;14606;18476.66;Demais serviços;30034933;420;25;5;70;0;1;15;185;27;11;6;2;1;2;15;3;11;7;6;28;0;0;;;1;1;1;1;43864004;74368614;4197;2135;0;;;;2
Alto Parnaíba;MA;0;10766;10761;5;2657;1769;888;6963;131;540;757;864;4045;626;74559;172328;3441;0.633;0.683;0.785;0.474;-45.92734401;-9.108365932;275.7;94;118;11,132.18;;;11168;Rural Remoto;83008.58;10934;47221.88;36843.57;178008.03;6849.69;184857.72;10979;16837.39;Agricultura, inclusive apoio à agricultura e a pós colheita;;112;5;1;3;0;0;1;87;4;2;0;0;0;1;1;2;0;3;0;2;0;0;;;0;1;0;1;0;66778384;141;1620;0;;;;2
Alto Piquiri;PR;0;10179;10179;0;3252;2706;546;8252;124;429;560;691;5201;1247;60814;163430;2529;0.68;0.669;0.798;0.578;-53.44124908;-24.01901256;412.78;143;681;447.67;Corredores Das Águas;D;9896;Rural Adjacente;80718.8;14581.99;96019.86;45.08;236399.54;16598.16;252997.7;10253;24675.48;Agricultura, inclusive apoio à agricultura e a pós colheita;25950821;166;0;0;23;0;1;6;87;7;6;2;0;0;5;1;2;6;6;1;13;0;0;;;1;1;1;1;33957144;111290130;2825;1510;0;;;;4
Alto Rio Doce;MG;0;12159;12159;0;3608;1590;2018;4991;45;221;308;458;3159;800;1903;3605;3706;0.62;0.595;0.828;0.483;-43.41887066;-21.02214615;813.85;216;578;518.05;;;11146;Rural Adjacente;37945.88;12783.01;35848.51;43553.9;130131.3;3803.55;133934.85;11792;11358.11;Administração, defesa, educação e saúde públicas e seguridade social;18872189;179;0;0;15;0;0;6;107;10;5;2;0;0;10;5;2;3;4;2;8;0;0;;;1;0;1;0;106496839;0;1962;2327;0;;;;4
Alto Rio Novo;ES;0;7317;7312;5;2302;1386;916;4256;65;249;352;378;2698;514;3208;28762;2811;0.664;0.634;0.815;0.567;-41.01868434;-19.05749961;538;76;181;227.62;;;7798;Rural Adjacente;13513.91;5.3;25868.45;37014.3;81694.27;3757.14;85451.41;7979;10709.54;Administração, defesa, educação e saúde públicas e seguridade social;21524164;196;13;2;12;0;0;8;98;10;4;1;0;0;4;3;3;3;5;2;28;0;0;;;0;1;0;1;0;31857657;1285;1507;1;;;;3
Alto Santo;CE;0;16359;16359;0;4609;2340;2269;8036;102;452;692;717;5091;982;7069;2900;4140;0.601;0.563;0.774;0.499;-38.27277815;-5.52208174;70;751;135;1,338.21;;;17096;Rural Adjacente;30808.96;7570.02;36883.69;51.6;126861.71;6.69;133550.89;16927;7889.81;Administração, defesa, educação e saúde públicas e seguridade social;34764298;213;10;0;43;0;0;3;116;5;4;0;0;0;5;4;5;2;1;1;14;0;0;;;1;0;1;0;16946569;0;775;3073;0;;;;1
Alto Taquari;MT;0;8072;8066;6;2425;2187;238;7234;131;502;653;750;4850;348;105210;396361;1771;0.705;0.736;0.833;0.571;-53.28199312;-17.83474365;874.22;593;814;1,440.40;Região Turística Domo De Araguainha;D;10557;Intermediário Remoto;454830.95;220893.64;231848.91;67837.48;975.41;63109.18;1038520.17;9963;104237.7;Agricultura, inclusive apoio à agricultura e a pós colheita;41892856;202;15;1;10;1;0;3;97;18;16;5;0;2;8;4;2;5;7;2;6;0;0;1;66;1;2;1;2;24086229;157176653;1647;1177;0;;;;1
Altônia;PR;0;20516;20471;45;6676;4968;1708;14996;202;821;1063;1217;9431;2262;8358;54427;1275;0.721;0.69;0.848;0.641;-53.89197386;-23.87088141;373.69;143;1063;661.56;Corredores Das Águas;D;21933;Intermediário Adjacente;66796.83;18141.32;140.55;87781.51;313268.49;21292.68;334561.16;21867;15299.82;Demais serviços;;528;7;1;131;0;4;5;221;16;19;8;2;5;13;13;3;21;20;1;38;0;0;;;2;2;2;2;101313136;333956154;6470;4476;1;;;;3
Altos;PI;0;38822;38822;0;10392;7448;2944;27332;444;1811;2232;2703;16996;3146;3328;7076;3822;0.614;0.59;0.767;0.512;-42.46094804;-5.036546434;190.5;1394;914;957.65;Polo Teresina;D;40440;Urbano;7.8;52494.53;124168.89;134564.71;319.03;27429.17;346461.52;39795;8706.16;Administração, defesa, educação e saúde públicas e seguridade social;61108622;398;3;0;16;0;1;31;225;14;12;4;0;0;4;11;3;11;10;4;49;0;0;;;1;2;1;2;22788144;275248789;3273;9447;0;;;;1
Alumínio;SP;0;16839;16831;8;4990;4181;809;14076;201;834;1174;1263;9421;1183;279;1063;284;0.77;0.729;0.841;0.732;-47.25905692;-23.53337305;782.17;1759;3018;83.66;;;18484;Urbano;1817.86;860099.36;360526.24;86379.78;1308823.25;499527.92;1808351.17;18194;99392.72;Eletricidade e gás, água, esgoto, atividades de gestão de resíduos e descontaminação;;271;2;0;18;0;0;16;118;16;31;2;2;1;7;13;2;17;3;5;18;0;0;;;2;0;2;0;294845540;0;5929;1169;8;;;;1
Alvarães;AM;0;14088;14073;15;2335;1367;968;7848;203;775;1192;1109;4166;403;5605;47248;5417;0.527;0.499;0.778;0.377;-64.81353468;-3.216583769;46.12;363;26;5,923.46;;;15860;Rural Remoto;62448.57;5.48;20107.65;58156.74;146193.2;1752.94;147946.14;15729;9405.95;Administração, defesa, educação e saúde públicas e seguridade social;25321352;37;2;0;0;0;0;0;26;1;0;0;0;0;0;2;2;2;0;0;2;0;0;;;;;;;;;16;571;0;;;;1
Alvarenga;MG;0;4444;4436;8;1405;694;711;2109;30;110;161;183;1282;343;933;3774;4351;0.59;0.589;0.798;0.441;-41.72644227;-19.41446969;393.11;49;162;278.17;Trilhas Do Rio Doce;E;3973;Rural Adjacente;7622.38;1652.39;9.2;18108.88;36587.62;997.15;37584.77;4245;8853.89;Administração, defesa, educação e saúde públicas e seguridade social;;36;0;0;3;0;0;0;18;1;0;0;0;0;1;1;2;0;0;0;10;0;0;;;;;;;;;692;1066;0;;;;1
Álvares Florence;SP;0;3897;3894;3;1428;977;451;2648;14;107;141;172;1667;547;13616;79165;1098;0.728;0.701;0.806;0.683;-49.91118481;-20.31987625;459.59;309;332;362.41;;;3712;Rural Adjacente;45277.01;3740.74;24792.05;19085.73;92895.53;2.06;94952.88;3824;24830.77;Agricultura, inclusive apoio à agricultura e a pós colheita;17198413;157;105;0;6;0;0;1;18;4;3;1;0;0;1;5;2;1;0;0;10;0;0;;;0;1;0;1;0;37540743;1116;367;0;;;;2
Álvares Machado;SP;0;23513;23493;20;7431;6646;785;20257;240;1039;1502;1739;13165;2572;1213;13425;404;0.758;0.712;0.834;0.732;-51.46879727;-22.077779;477.33;778;3157;347.65;;;24830;Urbano;24514.56;81449.28;216348.88;91435.16;413747.87;56778.96;470.53;24733;19024.25;Demais serviços;55300536;689;66;2;47;0;3;37;309;29;49;5;2;7;11;39;2;19;18;6;38;0;0;;;2;2;2;1;166124862;123059801;8201;4110;2;;;;2
Álvaro De Carvalho;SP;0;4650;4645;5;1012;909;103;2952;50;186;224;263;1810;419;1827;10889;2241;0.688;0.669;0.805;0.605;-49.72060902;-22.07637463;614.58;229;346;153.66;;;5179;Rural Adjacente;10978.36;2668.71;16540.05;17839.92;48027.05;1565.62;49.59;5075;9771.95;Administração, defesa, educação e saúde públicas e seguridade social;13927825;54;8;0;3;0;0;3;18;1;8;0;0;0;1;2;2;3;0;0;5;0;0;;;0;1;0;1;0;14762964;933;211;0;;;;1
Alvinlândia;SP;0;3000;3000;0;912;824;88;2688;49;153;190;255;1685;356;2009;38153;1247;0.722;0.721;0.791;0.659;-49.76303303;-22.44501015;666.51;230;228;84.88;;;3206;Rural Adjacente;10164.28;3.54;16462.32;16021.25;46.19;982.03;47168.6;3182;14823.57;Administração, defesa, educação e saúde públicas e seguridade social;12329569;94;43;0;3;0;0;4;28;1;3;1;0;0;3;2;2;2;0;0;2;0;0;;;0;1;0;1;0;18294466;894;215;0;;;;1
Alvinópolis;MG;0;15261;15261;0;4647;3515;1132;11344;128;599;831;1018;7124;1644;774;2105;2533;0.68;0.651;0.822;0.577;-43.06608324;-20.11476348;572.65;1015;898;599.44;Serras De Minas;D;15239;Rural Adjacente;21631.89;65500.27;83.87;55174.7;226177.81;42.58;268755.37;15609;17217.97;Demais serviços;22401440;307;6;6;36;0;1;8;151;11;15;4;0;0;9;11;3;8;11;7;20;0;0;;;1;1;1;1;33184200;67004908;2775;2142;0;;;;4
Alvorada;RS;0;195673;195483;190;60221;60221;;194483;2857;11832;16525;19930;126085;17254;102;343;1952;0.7;0.694;0.874;0.564;-51.07772945;-29.99749306;13.44;21280;31824;71.60;;;209213;Urbano;1379.14;450.98;1108.76;749842.52;2310961.1;212178.51;2523139.61;207392;12166.04;Demais serviços;221330891;2994;3;2;382;0;9;309;1324;180;152;46;14;34;82;172;2;97;37;32;117;0;0;;;3;5;3;3;311417420;1163539695;58183;17062;71;;;1;1
Alvorada;TO;0;8374;8374;0;2605;2398;207;7699;118;467;714;732;4885;783;27707;74965;1679;0.708;0.677;0.843;0.623;-49.12681141;-12.47881532;302.25;216;670;1,212.17;;;8427;Intermediário Adjacente;47184.39;49052.42;89.81;45665.68;231709.3;39269.73;270979.04;8526;31782.67;Demais serviços;23016524;267;7;1;11;0;0;14;137;24;12;0;0;3;17;10;5;2;9;4;11;0;0;;;0;1;0;1;0;183800494;1410;1652;0;;;;1
Alvorada D'Oeste;RO;0;16853;16841;12;5051;2702;2349;8763;124;591;762;873;5653;760;2556;19512;3242;0.643;0.654;0.763;0.534;-62.27727487;-11.34413002;182.4;162;385;3,029.19;;;14722;Rural Adjacente;81681.27;11284.65;49673.49;91636.85;234276.26;9283.88;243560.14;16902;14410.14;Administração, defesa, educação e saúde públicas e seguridade social;29322835;205;3;2;12;0;1;5;116;15;10;4;0;0;7;3;4;3;4;2;14;0;0;;;0;1;0;1;0;194509392;1513;5291;0;;;;1
Alvorada De Minas;MG;0;3546;3546;0;966;412;554;1441;29;98;152;159;858;145;138;355;4802;0.57;0.57;0.794;0.414;-43.36608434;-18.73359302;671.94;73;83;374.01;Diamantes;E;3606;Rural Adjacente;6383.49;1934.41;11660.11;23565.21;43543.23;3680.19;47223.42;3669;12870.92;Administração, defesa, educação e saúde públicas e seguridade social;24425787;54;1;0;0;0;0;1;27;5;1;0;0;0;1;2;2;3;0;0;11;0;0;;;;;;;;;542;456;2;;;;2
Alvorada Do Gurguéia;PI;0;5050;5050;0;1289;487;802;1843;25;132;178;194;1150;164;12705;36930;4681;0.578;0.52;0.749;0.496;-43.86307158;-8.443959072;268.78;102;54;2,131.92;Polo Das Nascentes;E;5392;Rural Remoto;13350.94;2010.75;10644.38;22.55;48.56;3720.01;52280.54;5303;9858.67;Administração, defesa, educação e saúde públicas e seguridade social;;26;3;0;0;0;1;1;13;0;0;0;0;0;0;1;3;0;0;0;4;0;0;;;;;;;;;189;580;0;;;;1
Alvorada Do Norte;GO;0;8084;8084;0;2423;2049;374;6762;114;443;658;710;4202;635;1555;5984;2898;0.66;0.64;0.819;0.548;-46.51563769;-14.48283911;512.13;386;256;1,259.37;;;8614;Urbano;15457.63;7.62;48.81;33.48;105370.56;7280.27;112650.83;8598;13101.98;Demais serviços;24655442;193;0;1;5;0;1;8;108;9;10;0;1;1;6;6;6;10;10;1;10;0;0;;;2;1;2;1;92074659;131214639;1898;1112;1;;;;1
Alvorada Do Sul;PR;0;10283;10270;13;3143;2293;850;7305;89;318;458;548;4755;1137;45193;118098;1672;0.708;0.695;0.826;0.617;-51.22921633;-22.78037877;365.06;147;747;424.25;Norte Do Paraná;D;11306;Rural Adjacente;72662.45;11846.27;94510.52;50.44;229459.47;14992.99;244452.46;11148;21927.92;Demais serviços;31346258;241;5;0;21;0;2;13;108;27;12;3;2;4;10;9;4;5;7;4;5;0;0;1;20;1;1;1;1;16389020;152829160;2846;1135;1;;;;2
Amajari;RR;0;9327;9327;0;1022;309;713;1218;27;103;152;152;712;72;1605;8981;5551;0.484;0.437;0.815;0.319;-61.42059017;3.652118445;107.72;56;31;28,472.31;O Extremo Norte Do Brasil;D;12394;Rural Adjacente;32648.54;1411.12;9412.74;94812.15;138284.55;886.83;139171.37;11285;12332.42;Administração, defesa, educação e saúde públicas e seguridade social;;17;0;0;0;0;0;1;9;0;1;0;1;0;0;1;2;1;0;0;1;0;0;1;33;;;;;;;192;356;0;;;;1
Amambai;MS;0;34730;34668;62;9056;7341;1715;22526;361;1278;1881;2040;14516;2450;123065;310957;2606;0.67;0.683;0.818;0.546;-55.24382769;-23.10058224;481.34;1326;3506;4,202.32;;;38958;Intermediário Adjacente;223198.14;85.75;287625.07;201795.61;798367.05;79215.17;877582.23;38030;23076.05;Demais serviços;;646;13;4;51;0;3;15;326;36;33;9;2;3;28;14;5;30;20;9;45;0;0;;;1;2;1;2;62606716;512807436;8410;5764;0;;;;1
Amapá;AP;0;8069;8069;0;1784;1528;256;6353;127;515;771;823;3707;410;503;2990;3255;0.642;0.631;0.79;0.532;-50.79321447;2.053921245;11.95;222;126;8,454.85;Meio Do Mundo;D;9029;Intermediário Remoto;22310.15;3.57;41756.01;69044.2;136676.86;6.88;143556.38;8690;16519.72;Administração, defesa, educação e saúde públicas e seguridade social;;73;0;0;1;0;0;1;38;1;4;0;0;1;3;0;3;13;3;1;4;0;0;;;0;1;0;1;0;23199565;231;331;0;;;;2
Amapá Do Maranhão;MA;0;6431;6431;0;1508;1143;365;4821;114;413;626;660;2645;363;1462;4356;5458;0.52;0.503;0.688;0.406;-46.0091799;-1.680921495;59.44;288;25;502.40;;;6918;Rural Adjacente;8663.5;1704.52;15331.58;20463.43;46163.03;2488.83;48651.86;6844;7108.69;Administração, defesa, educação e saúde públicas e seguridade social;;26;0;0;0;0;0;0;19;0;0;0;0;0;0;1;2;3;0;0;1;0;0;;;;;;;;;124;529;0;;;;1
Amaporã;PR;0;5443;5443;0;1646;1313;333;4324;70;284;357;417;2786;410;14061;73690;2699;0.669;0.644;0.785;0.591;-52.78678735;-23.09737029;407.86;104;364;384.74;Corredores Das Águas;E;6181;Rural Adjacente;34138.34;4666.75;30.36;26025.71;95190.33;7569.27;102759.59;6019;17072.54;Administração, defesa, educação e saúde públicas e seguridade social;;111;3;1;12;0;0;2;58;7;4;1;0;0;0;1;3;5;1;1;12;0;0;;;;;;;;;1262;741;0;;;;1
Amaraji;PE;0;21939;21932;7;6189;4648;1541;15319;234;1032;1391;1560;9478;1624;7999;39626;4645;0.58;0.575;0.748;0.454;-35.45077292;-8.378487;291.62;1319;354;234.96;;;22788;Urbano;34524.65;6424.18;51349.85;86133.96;178432.64;8705.25;187137.9;22685;8249.41;Administração, defesa, educação e saúde públicas e seguridade social;39476880;148;4;0;9;0;1;0;98;5;7;2;0;0;4;5;4;2;1;0;6;0;0;;;0;1;0;1;0;22907488;1224;1604;0;;;;1
Amaral Ferrador;RS;0;6353;6350;3;2117;658;1459;1866;21;113;159;147;1174;252;6992;45022;3620;0.624;0.664;0.802;0.457;-52.2512704;-30.8751476;47.84;111;135;505.98;;;6974;Rural Adjacente;54004.1;3050;19760.79;30800.9;107615.78;2631.84;110247.62;6817;16172.45;Administração, defesa, educação e saúde públicas e seguridade social;15438525;101;1;1;2;0;0;2;52;13;3;4;1;0;2;3;2;3;1;1;10;0;0;;;0;1;0;1;0;33347337;1698;1091;1;;;;1
Amaralina;GO;0;3434;3434;0;1091;377;714;1101;14;44;99;106;719;119;3834;13053;3940;0.609;0.569;0.813;0.489;-49.29537722;-13.92548186;493.86;25;63;1,343.24;;;3778;Rural Adjacente;24772.33;1553.48;7089.5;15980.07;49395.39;1648.73;51044.12;3723;13710.48;Pecuária, inclusive apoio à pecuária;13067842;31;1;0;1;0;0;2;18;3;0;0;0;0;1;1;2;1;1;0;0;0;0;;;;;;;;;245;290;0;;;;1
Amarante;PI;0;17135;17135;0;4870;2587;2283;8738;130;539;633;831;5350;1255;3783;6746;4209;0.598;0.574;0.75;0.497;-42.85369282;-6.246610772;99.81;215;245;1,155.21;Polo Histórico Cultural;D;17592;Rural Adjacente;7.96;5444.78;40820.68;62.63;116.85;7.81;124.66;17317;7198.74;Administração, defesa, educação e saúde públicas e seguridade social;;192;1;0;5;0;1;3;130;6;9;5;0;0;3;7;3;5;7;2;5;0;0;;;1;1;1;1;27846958;47835640;786;3497;0;;;;1
Amarante Do Maranhão;MA;0;37932;37932;0;8326;3852;4473;14910;334;1281;1759;1771;8477;1288;3885;2674;5143;0.555;0.541;0.716;0.441;-46.75063755;-5.557662;250.76;319;137;7,438.22;;;41136;Rural Adjacente;77971.54;9463.62;70.2;118.11;275744.1;9462.13;285206.23;40756;6997.9;Administração, defesa, educação e saúde públicas e seguridade social;;129;2;0;2;0;2;1;95;0;0;0;0;0;4;1;2;4;3;2;11;0;0;;;1;0;1;0;33256121;0;553;6527;0;;;;1
Amargosa;BA;0;34351;34337;14;10418;7720;2698;24819;321;1387;2110;2199;15437;3365;3046;12498;3596;0.625;0.616;0.807;0.492;-39.5981225;-13.03445136;393.84;565;1187;431.67;Caminhos Do Jiquiriçá;C;37031;Intermediário Adjacente;32277.03;29232.58;148384.98;106836.95;316731.54;21554.5;338286.05;38041;8892.67;Demais serviços;;537;4;0;39;0;0;17;316;6;23;3;2;2;17;22;2;16;24;6;38;0;0;;;1;2;1;2;43762123;262486884;4689;4707;0;;;;4
Amaturá;AM;0;9467;9432;35;1429;952;477;4868;119;446;533;678;2813;279;594;8897;5057;0.56;0.499;0.773;0.455;-68.20961464;-3.366805188;73.45;207;17;4,754.11;Polo Alto Solimões;E;11332;Rural Remoto;6291.46;2064.35;11805.21;44683.95;64844.97;1386.63;66231.61;11047;5995.44;Administração, defesa, educação e saúde públicas e seguridade social;20330169;14;0;0;0;0;0;0;10;0;0;0;0;0;0;0;2;1;0;0;1;0;0;;;;;;;;;5;273;0;;;;1
Amélia Rodrigues;BA;0;25190;25190;0;7169;5663;1506;19897;317;1153;1648;1901;12788;2090;768;1385;2768;0.67;0.609;0.81;0.6;-38.75555692;-12.4001884;203.61;474;1017;173.48;;;25224;Intermediário Adjacente;26986.46;28035.37;116439.27;84.61;256073.09;24327;280400.08;26424;10611.57;Demais serviços;;250;5;0;24;0;0;14;114;24;14;3;0;2;5;8;2;8;7;4;16;0;0;1;279;0;2;0;2;0;149202650;2540;2331;1;;;;3
América Dourada;BA;0;15961;15961;0;4343;2919;1424;10815;195;847;1089;1254;6374;1056;6982;19255;5036;0.561;0.506;0.751;0.464;-41.43716328;-11.44964586;688.07;644;118;822.37;;;16097;Rural Adjacente;29851.3;8038.23;28118.57;49548.68;115556.78;5202.35;120759.14;16781;7196.18;Administração, defesa, educação e saúde públicas e seguridade social;38520382;80;3;0;0;0;1;1;47;1;0;0;0;0;0;1;2;19;1;1;3;0;0;;;0;1;0;1;0;18022992;968;940;0;;;;5
Americana;SP;0;210638;210056;582;67721;67445;276;208976;2304;9428;12273;14455;143893;26623;1500;7800;19;0.81;0.8;0.876;0.76;-47.33036293;-22.7408835;550.37;54519;86865;133.91;Bem Viver;C;237112;Urbano;10819.3;2446315.12;5466271.7;920894.56;8844300.67;1443614.7;10287915.38;231621;44417.02;Demais serviços;541958027;10786;22;1;1463;0;36;534;3996;337;692;270;195;352;666;1079;5;306;306;146;380;0;0;3;298;25;13;4;2;5292143124;8118622688;113213;33482;39;;3;;5
Americano Do Brasil;GO;0;5508;5501;7;1925;1649;276;5002;54;259;383;453;3267;586;1117;4756;1909;0.7;0.669;0.813;0.631;-49.98364153;-16.25510029;891.35;188;298;133.56;;;6057;Intermediário Adjacente;31180.05;5188.92;19427.41;22839.44;78635.83;3182.26;81818.09;5969;13707.17;Administração, defesa, educação e saúde públicas e seguridade social;17455712;150;15;1;9;0;0;4;55;29;2;0;2;0;3;5;6;5;8;2;4;0;0;;;;;;;;;1230;990;0;;;;1
Américo Brasiliense;SP;0;34478;34439;39;10290;10215;75;34097;536;1985;2537;3038;23299;2702;9563;67147;544;0.75;0.709;0.852;0.701;-48.10660456;-21.7300365;730.22;1266;5267;122.79;Centro Paulista;E;39962;Urbano;19866.69;278040.42;326975.16;133081.19;757963.45;79677.62;837641.06;38701;21643.91;Demais serviços;84689608;830;7;0;93;1;1;97;337;75;72;12;5;1;17;34;2;32;13;8;23;0;0;;;3;2;3;2;308291016;221911382;13728;5748;50;;;;1
Américo De Campos;SP;0;5706;5701;5;1976;1672;304;4782;52;210;296;369;3019;836;9325;55311;663;0.745;0.715;0.817;0.708;-49.72702684;-20.29640194;449.16;546;572;252.88;;;5956;Rural Adjacente;35521.63;3.9;33320.3;23942.66;96685.54;2498.62;99184.15;5955;16655.61;Agricultura, inclusive apoio à agricultura e a pós colheita;18743451;180;24;0;17;0;0;6;76;13;5;1;0;1;6;1;2;5;4;6;13;0;0;;;2;0;2;0;135081944;0;2224;668;0;;;;1
Ametista Do Sul;RS;0;7323;7323;0;2401;1297;1104;3798;38;207;316;364;2474;399;2162;15125;2407;0.682;0.697;0.809;0.562;-53.19217726;-27.35642547;465.82;77;236;93.70;Rota Águas E Pedras;D;7416;Rural Adjacente;13408.01;14.55;26003.24;32632.63;86.59;5.82;92414.75;7573;12203.19;Administração, defesa, educação e saúde públicas e seguridade social;17687247;246;1;0;53;0;0;8;128;15;12;2;2;0;2;6;2;2;6;2;5;0;0;;;0;1;0;1;0;21393737;2423;1563;0;;;;2
Amontada;CE;0;39232;39189;43;9807;4252;5555;15906;292;1172;1502;1774;9453;1713;20526;25038;4018;0.606;0.503;0.761;0.582;-39.82882279;-3.364877803;43.42;1021;244;1,178.16;Litoral Oeste;C;43131;Rural Adjacente;30592.57;145731.26;82490.76;141345;400159.59;21416.44;421576.03;42508;9917.57;Administração, defesa, educação e saúde públicas e seguridade social;84717861;208;6;1;6;1;1;6;130;0;21;1;1;1;1;4;3;9;1;0;15;0;0;1;26;1;1;1;1;12164753;34725149;1681;5839;0;;;;
Amorinópolis;GO;0;3609;3609;0;1312;806;506;2161;27;82;134;192;1384;342;3250;10725;2433;0.68;0.672;0.813;0.579;-51.09716707;-16.61791212;638.8;116;102;408.53;;;3185;Rural Adjacente;23761.04;1964.37;11276.63;15610.33;52.61;2070.01;54682.37;3447;15863.76;Pecuária, inclusive apoio à pecuária;;46;1;0;2;0;0;0;26;8;0;1;0;0;1;1;2;2;0;0;2;0;0;;;;;;;;;609;613;0;;;;1
Amparo;SP;0;65829;65717;112;20542;16499;4043;52531;547;2271;3166;3630;35339;7578;5025;32519;93;0.785;0.78;0.871;0.711;-46.76508569;-22.69938863;673.43;8236;16145;445.32;Águas E Flores Paulista;C;71700;Urbano;111432.64;1040280.84;1409813.23;278935.48;2840.46;603308.93;3443771.11;70742;48680.71;Demais serviços;203473716;2629;465;6;283;0;3;93;821;164;176;40;23;31;98;124;3;57;120;40;82;0;0;3;173;5;2;4;2;1101561932;997232084;29581;15267;7;;;;4
Amparo;PB;0;2088;2088;0;636;340;296;1062;17;99;92;94;641;119;660;141;4008;0.606;0.537;0.752;0.551;-37.06477525;-7.567211522;622.13;6;18;121.98;;;2227;Rural Adjacente;1275.81;1169.3;4315.48;14574.8;21335.38;643.4;21978.79;2229;9860.38;Administração, defesa, educação e saúde públicas e seguridade social;;16;0;0;1;0;0;1;6;0;0;0;0;0;1;0;2;2;0;0;3;0;0;;;;;;;;;131;153;0;;;;1
Amparo De São Francisco;SE;0;2275;2275;0;686;554;132;1834;29;123;163;203;1119;197;194;927;3890;0.611;0.569;0.728;0.55;-36.92748369;-10.13397103;23.41;118;80;35.33;Polo Do Velho Chico;E;2368;Rural Adjacente;1417.16;1959.72;5056.83;16199.27;24632.97;1309.66;25942.63;2382;10891.11;Administração, defesa, educação e saúde públicas e seguridade social;;31;0;0;2;0;0;1;15;0;0;0;0;0;0;2;4;0;1;1;5;0;0;;;;;;;;;132;276;0;;;;1
Amparo Do Serra;MG;0;5053;5053;0;1467;766;701;2623;26;115;196;273;1607;406;794;3020;3284;0.64;0.616;0.811;0.528;-42.80720215;-20.51006669;583.1;137;185;136.19;;;4751;Rural Adjacente;9321.55;2361.49;12727.92;20582.85;44.99;1816.49;46810.31;4947;9462.36;Administração, defesa, educação e saúde públicas e seguridade social;12866549;46;0;0;5;0;0;1;26;5;1;1;0;0;1;1;2;2;1;0;0;0;0;;;;;;;;;;;;;;;2
Ampére;PR;0;17308;17299;9;5505;4230;1275;12190;198;703;975;1187;7915;1212;14806;48327;1638;0.71;0.699;0.824;0.62;-53.47325674;-25.91706847;527.46;220;745;298.35;Vales Do Iguaçu;D;18989;Urbano;78580.84;127265.14;188.21;74792.24;468846.99;57313.3;526160.29;18740;28076.86;Demais serviços;42327497;666;0;1;120;0;0;21;262;70;28;12;4;19;24;11;2;26;29;7;30;0;0;;;2;2;2;2;52965209;255821301;6771;3529;2;;;;1
Anadia;AL;0;17424;17424;0;4670;2513;2157;10654;181;759;972;1132;6518;1092;3201;12929;4887;0.568;0.546;0.756;0.444;-36.30081357;-9.684083785;133.25;66;93;186.13;;;17564;Intermediário Adjacente;38253.12;3636.18;27.65;68733.78;138274.79;2216.79;140491.58;17832;7878.62;Administração, defesa, educação e saúde públicas e seguridade social;;124;2;0;3;0;0;0;80;14;3;1;0;0;1;7;2;3;1;1;6;0;0;;;;;;;;;991;1278;0;;;;1
Anagé;BA;0;25516;25516;0;7252;1486;5766;4904;71;319;383;434;3121;576;1960;3889;5330;0.54;0.549;0.771;0.371;-41.12711317;-14.61132559;390.05;110;136;1,336.36;;;18194;Rural Adjacente;14679.15;8532.5;55.58;74.09;152880.07;7495.76;160375.82;19824;8089.98;Administração, defesa, educação e saúde públicas e seguridade social;;238;0;3;8;0;0;8;100;9;8;2;0;2;2;5;4;8;5;3;71;0;0;;;1;1;1;1;15763051;41163151;1169;1069;0;;;;2
Anahy;PR;0;2874;2874;0;938;681;257;2108;32;116;150;205;1294;311;10575;28565;2066;0.695;0.671;0.844;0.593;-53.13331983;-24.64758246;485.18;21;164;102.65;;;2816;Rural Adjacente;39279.06;2973.25;24870.54;15181.18;82304.03;5412.25;87.72;2908;30163.78;Agricultura, inclusive apoio à agricultura e a pós colheita;14069817;54;0;0;7;0;0;0;29;1;2;0;0;0;2;0;2;2;2;0;7;0;0;;;;;;;;;818;589;0;;;;1
Anajás;PA;0;24759;24759;0;4856;1934;2922;9443;218;1023;1287;1264;5162;489;267;4036;5550;0.484;0.506;0.774;0.29;-49.94500104;-0.984451394;5;698;54;6,913.64;Marajó;D;28859;Rural Remoto;40210.7;11.24;29413.3;100027.27;180891.09;8333.43;189224.52;28012;6755.12;Administração, defesa, educação e saúde públicas e seguridade social;;62;0;0;4;0;0;0;47;2;1;0;0;0;1;1;2;0;1;0;3;0;0;;;0;1;0;1;0;41401980;5;278;0;;;;1
Anajatuba;MA;0;25291;25291;0;6503;1866;4637;7005;112;429;560;714;4420;770;1717;2899;4624;0.581;0.523;0.762;0.492;-44.62067003;-3.257554842;6.91;983;91;942.57;;;26614;Rural Adjacente;37668.53;7006.65;41726.89;81.36;167763.47;5953.61;173717.07;27125;6404.32;Administração, defesa, educação e saúde públicas e seguridade social;49404250;80;1;0;2;0;0;2;57;1;2;1;0;0;0;2;1;3;1;0;7;0;0;;;1;0;1;0;46324365;0;619;2640;0;;;;1
Analândia;SP;0;4293;4288;5;1385;1113;272;3376;40;181;243;235;2137;540;11620;77034;475;0.754;0.745;0.861;0.668;-47.66076642;-22.1287855;659.56;660;644;325.95;Serra Do Itaqueri;D;4933;Rural Adjacente;28.54;39254.36;44.73;25947.92;138472.36;4104.36;142576.73;4789;29771.71;Demais serviços;22279145;162;36;3;8;0;0;6;39;26;20;3;0;4;6;4;2;0;2;0;3;0;0;;;1;0;1;0;58768815;0;1535;332;0;;;;1
Anamã;AM;0;10214;10214;0;1807;809;998;4149;87;385;551;547;2359;220;404;3276;4306;0.594;0.537;0.741;0.526;-61.40590348;-3.576370427;21.61;328;18;2,446.12;;;13269;Rural Remoto;32313.26;3165.58;13.85;44.09;93411.4;1906.29;95317.69;12653;7533.21;Administração, defesa, educação e saúde públicas e seguridade social;30129966;19;0;0;0;0;0;0;13;1;1;0;0;0;0;0;2;0;0;0;2;0;0;;;;;;;;;5;145;0;;;;1
Ananás;TO;0;9865;9848;17;2644;2191;453;8101;139;590;783;949;4832;808;368;1283;2656;0.67;0.621;0.804;0.605;-48.07976461;-6.362818154;192.72;77;410;1,576.97;Bico Do Papagaio;D;9607;Intermediário Adjacente;18294.73;2414.34;29058.69;53727.96;103495.72;5370.58;108866.3;9798;11111.07;Administração, defesa, educação e saúde públicas e seguridade social;;141;4;0;6;0;2;3;75;1;3;0;0;0;13;0;5;5;4;1;19;0;0;;;;;;;;;635;1829;0;;;;1
Ananindeua;PA;0;471980;471506;474;125942;125625;317;461048;7193;29206;39259;43913;311512;29965;56;866;1366;0.718;0.684;0.821;0.658;-48.37206665;-1.368713568;26.56;28979;36045;190.45;Belém;C;525566;Urbano;10568.79;1042974.67;3389.22;1485518.39;5928283.35;782.61;6710.89;510834;13137.13;Demais serviços;163796082;4051;15;2;357;0;18;296;1919;210;151;50;27;28;145;293;5;204;126;35;170;0;0;3;313;8;10;3;4;1715496372;10632315675;64865;50367;5;;;;4
Anápolis;GO;0;334613;333947;666;104418;102621;1797;301151;4261;16632;22387;26102;201477;30292;11805;63815;869;0.737;0.737;0.822;0.66;-48.9572179;-16.32882574;1023.44;22148;66643;933.16;Região Turística Dos Negócios E Tradições;B;381970;Urbano;54164.91;3712360.96;5874020.4;1426.5;11067046.58;2051712.36;13118758.94;370875;35372.45;Demais serviços;990890693;9170;41;5;963;3;28;501;4047;407;448;121;175;205;407;613;6;377;308;113;402;0;0;7;627;22;15;4;3;2325572354;28144438043;134923;73452;12;1;1;;10
Anapu;PA;0;20543;20543;0;5036;2438;2598;9803;231;911;1146;1151;5902;462;7609;52391;5235;0.55;0.563;0.788;0.371;-51.2016218;-3.476104635;56.31;666;99;11,895.30;Xingu;D;27161;Rural Remoto;94402.6;18252.26;74663.66;94086.57;281405.1;28196.8;309.6;26271;11784.93;Administração, defesa, educação e saúde públicas e seguridade social;63452420;210;2;1;19;0;0;5;126;3;9;1;0;0;2;4;2;23;1;1;11;0;0;;;1;1;1;1;26176877;27779087;494;2893;0;;;;1
Anapurus;MA;0;13939;13939;0;3333;1747;1586;7158;138;613;782;798;4323;504;11469;35746;4620;0.581;0.511;0.764;0.502;-43.10579251;-3.667034662;94.5;969;156;608.90;;;15566;Rural Adjacente;17756.79;13201.09;44.42;47777.75;123158.51;10.42;133576.75;15499;8618.41;Administração, defesa, educação e saúde públicas e seguridade social;;78;9;0;4;0;0;4;46;1;1;0;0;0;3;1;2;1;0;1;5;0;0;;;;;;;;;425;1253;0;;;;1
Anastácio;MS;0;23835;23767;68;7382;6019;1363;19029;301;1241;1685;1768;11948;2086;11322;25979;2828;0.66;0.663;0.789;0.557;-55.8045706;-20.4823602;155.35;1325;1479;2,946.32;;;25128;Urbano;72692.89;64828.72;120915.84;122653.56;381.09;31286.6;412377.61;24852;16593.34;Administração, defesa, educação e saúde públicas e seguridade social;51507521;314;10;5;23;0;1;6;168;19;16;5;1;0;5;7;2;8;7;10;21;0;0;1;34;1;1;1;1;12109870;52096405;4390;5638;0;;;;1
Anaurilândia;MS;0;8493;8493;0;2753;1447;1306;4303;61;229;342;394;2766;511;19710;49835;2682;0.67;0.676;0.826;0.538;-52.71816936;-22.18265027;312.6;184;693;3,395.44;;;8993;Rural Adjacente;86686.46;19704.61;40945.8;54401.06;201737.92;11.6;213340.21;8885;24011.28;Pecuária, inclusive apoio à pecuária;;110;2;0;10;0;0;4;54;3;3;0;1;1;8;3;2;2;8;2;7;0;0;;;0;1;0;1;0;49619506;1908;747;0;;;;2
Anchieta;ES;0;23902;23876;26;7347;5634;1713;17595;249;978;1344;1470;11795;1759;3398;22091;1040;0.73;0.696;0.856;0.654;-40.64765894;-20.80561322;5.71;1478;2433;409.69;Costa E Da Imigração;B;28736;Rural Adjacente;29504.74;138812.08;254395.38;231027.55;653739.75;59.71;713452.92;28091;25397.92;Administração, defesa, educação e saúde públicas e seguridade social;220135587;699;4;0;47;0;2;66;254;25;104;5;7;6;25;49;5;17;26;13;44;0;0;9;556;0;3;0;3;0;383785706;5981;3489;10;;;;7
Anchieta;SC;0;6380;6380;0;1981;869;1112;2580;42;123;178;199;1701;337;2703;12361;1963;0.7;0.703;0.8;0.608;-53.33327018;-26.53568086;700.53;79;460;231.70;Caminhos Da Fronteira;D;5721;Rural Adjacente;50854.21;14963.34;37481.25;27.53;130824.11;7615.62;138439.73;5909;23428.62;Pecuária, inclusive apoio à pecuária;17209606;281;4;1;32;1;0;10;87;51;12;1;0;2;8;1;2;16;5;7;41;0;0;;;0;1;0;1;0;91708391;2365;903;0;;;;1
Andaraí;BA;0;13960;13955;5;3761;2218;1543;7730;133;509;820;916;4532;820;2178;2458;5144;0.555;0.54;0.764;0.415;-41.3246418;-12.80135065;416.65;453;222;1,590.32;Chapada Diamantina;D;13153;Rural Adjacente;6.28;5.17;29873.05;50086.6;91410.65;3.62;95.03;13732;6920.19;Administração, defesa, educação e saúde públicas e seguridade social;35353283;143;2;0;4;0;0;2;66;1;18;1;0;2;0;9;3;22;0;1;12;0;0;;;1;1;1;1;30902472;126805562;551;733;0;;;;3
Andirá;PR;0;20610;20610;0;6664;6278;386;19308;233;979;1295;1484;12497;2820;23193;85493;1165;0.725;0.69;0.838;0.66;-50.2264076;-23.05175165;491.04;424;3852;236.08;Norte Pioneiro;D;20139;Urbano;64695.28;157786.84;302032.42;89728.65;614243.18;71361.54;685604.72;20822;32926.94;Demais serviços;60953206;511;13;1;56;0;3;15;245;33;28;5;2;2;19;17;3;11;22;7;29;0;0;;;2;1;2;1;115605757;186377818;7174;3386;3;;;;2
Andorinha;BA;0;14414;14414;0;4625;2055;2570;6199;96;362;510;558;4020;653;836;36;4458;0.588;0.586;0.731;0.474;-39.8323357;-10.34424004;414.55;28;188;1,362.39;;;14690;Rural Adjacente;9029.55;58657.07;47.21;52117.8;167016.39;5200.03;172216.41;15551;11074.3;Indústrias extrativas;33934329;109;0;1;4;0;0;1;72;7;2;1;0;0;0;4;3;2;3;4;5;0;0;;;;;;;;;1141;1356;0;;;;3
Andradas;MG;0;37270;37243;27;12232;9405;2827;27784;297;1267;1623;1973;18664;3960;9297;86463;926;0.73;0.731;0.878;0.617;-46.575583;-22.07280734;878.9;1482;3650;469.40;Caminhos Gerais;D;40747;Urbano;114164.16;143064.78;361548.92;146269.5;765047.35;89.84;854.89;40407;21156.97;Demais serviços;63069637;1349;14;16;237;0;3;45;565;74;128;15;9;14;33;45;3;42;49;13;44;0;0;;;3;2;2;2;224337194;485025568;15060;6586;0;;;;5
Andradina;SP;0;55334;55288;46;18106;16890;1216;49207;565;2213;3018;3611;32179;7621;37004;158936;142;0.779;0.762;0.885;0.702;-51.37884779;-20.90146352;392.02;3594;8353;964.23;Tietê Vivo;C;57112;Urbano;119853.91;1495.55;1042417.94;216896.96;2874717.46;235009.65;3109727.1;57300;54270.98;Indústrias de transformação;138287448;1707;34;2;72;2;3;44;876;100;120;21;10;13;58;106;4;32;99;22;89;0;0;;;4;2;3;2;558188743;927150505;22374;14223;1;;;;1
André Da Rocha;RS;0;1216;1216;0;425;175;250;427;2;20;26;26;272;81;21974;84117;1310;0.72;0.738;0.837;0.605;-51.57373797;-28.6319772;704.88;163;65;329.40;;;1324;Rural Adjacente;92114.16;3354.65;15946.59;9394.54;120809.94;2.73;123539.98;1300;95030.75;Agricultura, inclusive apoio à agricultura e a pós colheita;10211816;51;7;0;3;1;0;0;17;5;5;0;3;0;1;1;1;1;0;1;5;0;0;;;;;;;;;449;57;0;;;;1
Andrelândia;MG;0;12173;12167;6;3972;3226;746;9735;105;445;674;759;6233;1519;5058;24626;1921;0.7;0.675;0.818;0.621;-44.31769904;-21.7369682;956.2;544;774;1,005.29;;;12242;Intermediário Adjacente;39438.47;13030.31;79424.84;47901.42;179795.04;15.55;195340.53;12507;15618.5;Demais serviços;23530223;274;16;3;16;0;0;4;127;18;21;4;0;1;11;4;2;7;16;7;17;0;0;;;0;1;0;1;0;241621204;3113;889;0;;;;1
Angatuba;SP;0;22210;22199;11;7052;5059;1993;15904;227;897;1223;1342;10446;1769;23445;218280;1351;0.72;0.693;0.827;0.648;-48.40675962;-23.483987;628.29;779;1928;1,027.29;Roteiro Fogão E Viola;D;24969;Intermediário Adjacente;154077.97;176165.44;336358.76;93210.62;759.81;74604.13;834416.92;24400;34197.41;Demais serviços;;935;409;1;30;0;0;30;267;44;34;3;3;9;13;17;2;13;16;9;35;0;0;;;2;2;2;1;243032933;259535716;7211;3074;1;;;;2
Angelândia;MG;0;8003;8003;0;2114;1119;995;4036;82;287;460;512;2347;348;3677;20810;4223;0.597;0.594;0.756;0.473;-42.26645049;-17.72778983;864.34;126;75;185.21;Pedras Preciosas;E;8481;Rural Adjacente;20106.26;3.43;19609.66;34036.37;77184.77;2.69;79875.04;8502;9394.85;Administração, defesa, educação e saúde públicas e seguridade social;18397342;71;5;0;6;0;0;3;36;2;1;0;0;0;2;2;2;3;5;0;4;0;0;;;;;;;;;906;1264;0;;;;1
Angélica;MS;0;9185;9182;3;3038;2542;496;6758;103;451;519;567;4364;754;46115;284619;2008;0.7;0.692;0.839;0.582;-53.76973048;-22.15606252;360.92;313;664;1,273.27;;;10620;Rural Adjacente;286060.03;151.56;103986.19;58780.18;600382.99;27.12;627.51;10304;60899.26;Agricultura, inclusive apoio à agricultura e a pós colheita;;208;7;0;12;0;3;6;86;31;12;2;1;1;9;5;3;4;5;1;20;0;0;;;1;1;1;1;24094689;76307873;2805;1844;0;;;;2
Angelim;PE;0;10202;10202;0;3002;1850;1152;5990;91;383;585;603;3457;871;1279;1863;4807;0.57;0.555;0.751;0.448;-36.28481436;-8.890374208;639.93;113;353;118.04;;;11072;Rural Adjacente;43.54;4450.81;17.34;42059.51;107386.04;2983.4;110369.44;10965;10065.61;Pecuária, inclusive apoio à pecuária;;48;0;0;4;0;0;0;21;0;3;0;0;0;1;4;3;1;0;0;11;0;0;;;;;;;;;826;756;0;;;;1
